time,x,y,z,vx,vy,vz,roll,pitch,yaw,p,q,r,delta_thrust,roll_torque,pitch_torque,yaw_torque,f0,f1,f2,f3,target_x,target_y,target_z
0.0,0.0,0.0,3.0,0.0,0.0,0.0,-0.0,0.0,-0.0,0.0,0.0,0.0,-1.1872448032321933e-15,-0.015,0.015,-0.0,1.1599153846153845,1.2752999999999999,1.3906846153846153,1.2752999999999999,2.0,2.0,3.0
0.05,-8.5431439264366e-06,-1.0551031355192681e-05,3.0001273767810415,-0.000170862878528732,-0.00021102062710385362,0.002547535620829322,-0.006543490422257462,0.00594049562073969,-0.00012502844233893093,-0.1308698084451493,0.11880991241479386,-0.0025005688467786193,-0.008193296062485141,-0.01479854318377379,0.015,0.00011665037539494323,1.158612731914477,1.2740556724867897,1.3878322948665833,1.2725060046696652,2.0,2.0,3.0
0.1,4.826788470190768e-05,4.940283942564691e-05,3.0001190851725927,0.0011362205725668857,0.0011990774156167918,-0.00016583216897458897,-0.026693242027612543,0.022581838601192786,0.00014303954603794055,-0.40298968854504214,0.33280059583234956,0.0029670527280177455,-6.063651153039567e-05,-0.004877391079117875,0.007332616865515749,-0.000137816643274878,1.2283577260151146,1.284693562812829,1.3222808640507582,1.2658072106097684,2.0,2.0,3.0
0.15000000000000002,0.0004644051818070003,0.0005299788611394454,3.0000744923696456,0.008322745942101853,0.00961152043427597,-0.0008918560589421531,-0.05509484588230301,0.04690491063849646,0.0011276213916295503,-0.5675056223217572,0.48672459303869253,0.006863749367699156,0.002312404780135134,0.0026972409358398124,0.00046120731279226793,-0.00040803586513552854,1.2845802394807315,1.287923970108104,1.2673799808419044,1.263628214349396,2.0,2.0,3.0
0.2,0.0017590301338587951,0.0020465806656629303,2.999994934810079,0.025892499041035896,0.0303320360904697,-0.001591151191329132,-0.08418773616777313,0.07371804117647575,0.002892893201586065,-0.5798806836313726,0.5373126387841174,0.008018831645535641,0.004768802241117849,0.005953888505665279,-0.0036834787609276404,-0.0006531369650384624,1.3137222819807426,1.2850612614910877,1.2395886876223354,1.2675965711469521,2.0,2.0,3.0
0.25,0.004567699793661607,0.005308398925513795,2.9998211044752816,0.05617339319605623,0.06523636519701728,-0.00347660669595129,-0.1094324289892084,0.09917636765531153,0.005098804040490036,-0.5010992302915281,0.5110853360404554,0.006923361844487821,0.011203357455522915,0.006290581935389598,-0.0055500685341452515,-0.0008551974409732961,1.3238556020684888,1.280735168469962,1.2327736753797596,1.275038911537313,2.0,2.0,3.0
0.3,0.00953328852509235,0.010973357245698392,2.999471614918648,0.09931177462861487,0.11329916640369195,-0.006989791132667733,-0.12935795585554427,0.12123050331992337,0.0073280909667345125,-0.3934256764222187,0.4434846474464635,0.005115526648313238,0.023312966458191024,0.0054058377652849736,-0.006000714785841931,-0.001030632908595162,1.3252572558075693,1.2785825948467953,1.2375145438758237,1.2831585719280028,2.0,2.0,3.0
0.35,0.017238572600082016,0.019582632211523888,2.9988754741421806,0.1541056814997933,0.17218549931650992,-0.011922815529352704,-0.14421290307972628,0.1391257784567656,0.009301244525161838,-0.29164266216607065,0.36031658827007906,0.003521394617450656,0.040809014515027095,0.00433604173638896,-0.0057227022933350295,-0.0011861577509042357,1.3244862701038829,1.2798724043566228,1.247111316029083,1.2905390240254386,2.0,2.0,3.0
0.39999999999999997,0.028176011492128384,0.031552593000975085,2.997992241832279,0.21874877784092736,0.23939921578902396,-0.0176646461980301,-0.1548216496362637,0.1528434837958203,0.010892674764999196,-0.20715876536758493,0.2764471051583289,0.0023949639524922725,0.06205824258356156,0.0034790147844289826,-0.005143448913088701,-0.001318134420952679,1.3243074161646584,1.2840833573150379,1.257980772337599,1.2968866967662667,2.0,2.0,3.0
0.44999999999999996,0.042740170139738534,0.047191304706681377,2.99681782266582,0.291283172952203,0.31277423411412586,-0.023488383329182128,-0.16199321369540678,0.1627107642661736,0.012069327082239852,-0.13938483873550764,0.19895291632568668,0.0016895612150588223,0.08491263411660113,0.002878652550560316,-0.004490618131404319,-0.0014209453287219345,1.3252267436381178,1.2899730545783392,1.2685400460845437,1.3023727898156008,2.0,2.0,3.0
0.49999999999999994,0.06123120736644697,0.06671878070267859,2.995380408097586,0.3698207445341688,0.39054951991994424,-0.028748291364681933,-0.16634224180694976,0.16917599640968153,0.012838669874276074,-0.08417339955745004,0.13036022878712308,0.001293386681092229,0.10731592938373632,0.002458071344110536,-0.0038685326288415314,-0.0014908374172851694,1.3268347839039172,1.2963314218964936,1.2781685994965937,1.307181124086732,2.0,2.0,3.0
0.5499999999999999,0.0838627452519994,0.09028295541366979,2.993732118667819,0.45263075771104844,0.4712834942198241,-0.032965788595333834,-0.1683052900771006,0.1726962644269661,0.013224730557461808,-0.03777004038035402,0.07090249898710108,0.0011096680689867758,0.1275989246744825,0.0021372117666925592,-0.003315077623967056,-0.0015265288785431524,1.3285517071984856,1.3022878456517755,1.2866110195780274,1.3113483522461946,2.0,2.0,3.0
0.6,0.11077088624071965,0.11797055296902406,2.9919399774192934,0.538162819774405,0.5537519511070854,-0.03584282497051561,-0.16820672910585002,0.17368962812527766,0.013261209176213623,0.002204123307788948,0.01983987722886696,0.0010681762693288042,0.1445613094950867,0.0018672745403763799,-0.0028364556829894197,-0.0015289107017670567,1.329913825139082,1.307330479919049,1.293731284959345,1.3147857194776111,2.0,2.0,3.0
0.65,0.1420230286771086,0.1498145054242575,2.9900778704506648,0.6250428487277787,0.6368790491046689,-0.037242139372573035,-0.16631153718025662,0.17252088915413835,0.012989644633090805,0.03702801576350434,-0.023861784099250605,0.001119434885967057,0.1574501435856896,0.0016270373479859248,-0.002425950350150633,-0.0015006036182672899,1.3306261010245914,1.3112146426758375,1.2994492725773874,1.3173601273078739,2.0,2.0,3.0
0.7000000000000001,0.17762603147064138,0.1857996455928494,2.988220012022018,0.7120600558706558,0.7197028033718378,-0.037157168572932164,-0.16285290590933138,0.16950269660768835,0.012457315965803005,0.06739203379492018,-0.06122414757669231,0.0012283628558325138,0.1659004939775434,0.0014101184207544397,-0.002073058304972557,-0.0014454621029191957,1.3305333225806042,1.3138639891832018,1.303739655459627,1.3189635267541104,2.0,2.0,3.0
0.7500000000000001,0.21753366313796768,0.22586773660496173,2.986435956201471,0.7981526333465261,0.8013618202422468,-0.03568111641094163,-0.15804214919054388,0.1649023863385993,0.011714268289209606,0.09375790976348516,-0.09314285798216482,0.001370002867276753,0.16986639539481263,0.0012152243706467928,-0.0017674361459841478,-0.0013680659735332184,1.3295803865598979,1.3153006909117146,1.3066368441242755,1.3195484737989251,2.0,2.0,3.0
0.8000000000000002,0.26165340457905073,0.26992228652965794,2.984787040945941,0.882394828821661,0.8810909984939241,-0.03297830511059807,-0.15207065778552312,0.15894994716832947,0.010810344710800368,0.11652442493067078,-0.12036420212088651,0.0015267198216624052,0.16955197127245758,0.0010414545584274365,-0.0015002953694507768,-0.0012732730048338403,1.3277822723303931,1.3156049022168161,1.3082303498082528,1.3191344469169957,2.0,2.0,3.0
0.8500000000000002,0.30985269594294496,0.31783323991821644,2.9833241014044214,0.9639858272778845,0.9582190677711699,-0.029258790830395398,-0.14511001627609615,0.1518452064809058,0.009792917929627479,0.1360711673260232,-0.14349832708710433,0.0016862119448779458,0.16534639833873543,0.0008870464156501645,-0.0012646546285484022,-0.0011658832562633263,1.3252038436456675,1.3148927894902405,1.3086522971518322,1.317797468050996,2.0,2.0,3.0
0.9000000000000002,0.36196469640176765,0.36944149669694004,2.982086266652529,1.0422400091764539,1.032165135574472,-0.024756695037844167,-0.13731269779404334,0.14376366470976354,0.008705485839837516,0.15275328708234584,-0.16304349652268185,0.001840034479495405,0.15776492107769235,0.0007496112339318437,-0.001055146452461775,-0.0010504211972556935,1.3219452112856358,1.3133034895142248,1.3080624598518387,1.3156537604259937,2.0,2.0,3.0
0.9500000000000003,0.4177935963904262,0.42456318488109945,2.981100642223357,1.1165779997731706,1.1024337636831882,-0.01971248858344765,-0.12881364898149264,0.13486099402708376,0.007586969320058069,0.16688868661472747,-0.17941047113121805,0.0019825136042788136,0.1473975379311242,0.0006266622214070708,-0.0008676976768394009,-0.0009310124860092286,1.318129675674462,1.3109895719173084,1.3066345995341049,1.3128436908052494,2.0,2.0,3.0
1.0000000000000002,0.4771194994647038,0.48299363303803816,2.980382681042506,1.186518061485552,1.1686089631387742,-0.01435922361701536,-0.11973234876784233,0.1252764220851243,0.006471469212538277,0.1787521797754978,-0.19294312950875317,0.002109970243842222,0.13486625980794892,0.0005159696406291168,-0.0006992154192755595,-0.0008113248918791441,1.3138931848668984,1.308108942272685,1.304545607483016,1.30951852518535,2.0,2.0,3.0
1.0500000000000003,0.5397028789606289,0.5445110138513517,2.97993705776877,1.2516675899185015,1.2303476162662708,-0.00891246547472413,-0.11017490589078877,0.11513525601410801,0.0053882864703762405,0.1885772407819704,-0.20393455314851028,0.0022201767650164386,0.12079105974994504,0.00041568788128995413,-0.0005473234594945346,-0.0006945482488143464,1.309375291771938,1.3048178371898804,1.3019675122274421,1.305830418560685,2.0,2.0,3.0
1.1000000000000003,0.6052886116333184,0.6088796493806885,2.9797588826513577,1.3117146534537905,1.287372710586736,-0.003563502348242764,-0.10023595291188045,0.10455077199177279,0.004362083875887778,0.19656177469155225,-0.21263900764840818,0.002311976473923175,0.10576401516368969,0.0003243401304928482,-0.00041015683177734693,-0.0005833969457070527,1.304711841343773,1.3012650903187861,1.2990618647109256,1.3019252187902053,2.0,2.0,3.0
1.1500000000000004,0.6736095933992204,0.6758529811603878,2.9798351163800447,1.3664196353180413,1.3394666355939866,0.0015246745737407252,-0.0900002642882431,0.09362564979185391,0.0034131242378767908,0.20287473697666658,-0.2192806043439598,0.00238501111314836,0.09033077275342376,0.00024074952118911016,-0.0002862087322170614,-0.0004801254146953749,1.3000294870551303,1.297587818715344,1.2959759620289293,1.2979375049540205,2.0,2.0,3.0
1.2000000000000004,0.7443899483289862,0.7451762166420659,2.980146073491558,1.415607098595315,1.3864647096335614,0.006219142230268204,-0.07954411556378929,0.08245308808317502,0.0025575516081724923,0.2076619636499653,-0.22405943053785782,0.0024395188140579963,0.07497830241918912,0.00016396813784220863,-0.0001742202025115128,-0.0003865513291979323,1.2954419378230726,1.293908506754539,1.2928404890511211,1.2939873687904566,2.0,2.0,3.0
1.2500000000000004,0.817347848976939,0.8165886696384892,2.9806669265913035,1.4591580129590564,1.4282490599284658,0.010417061994907328,-0.06893642804485033,0.07111769998449681,0.0018076966375306677,0.21105076977784631,-0.22715582303680304,0.0024761790784375457,0.060127874912387046,9.32222080572832e-05,-7.310322998440333e-05,-0.00030408343577096664,1.2910477028102771,1.29033332855405,1.2897682763638023,1.2901785671842585,2.0,2.0,3.0
1.3000000000000005,0.8921979725727341,0.8898258171901817,2.981369145936118,1.4970024719159025,1.4647429510338505,0.014044386896285843,-0.05823974028563743,0.05969625975476111,0.0011723934811859308,0.2131534559048474,-0.22873332420372905,0.0024959908709464764,0.04613223841023957,2.7874185990560895e-05,1.8110784019017674e-05,-0.00023375203856547795,1.2869290491582457,1.2869514868621863,1.2868539460661568,1.2865977563236508,2.0,2.0,3.0
1.3500000000000005,0.9686536227332535,0.964621098755544,2.982221828395857,1.5291130032103872,1.495905631307246,0.017053649194780363,-0.04751103644145513,0.048258349476551374,0.0006572989716194782,0.2140700131173132,-0.2289407358262235,0.0025001755267156723,0.03327604671877287,-3.260324921331543e-05,0.00010030378952232285,-0.00017624075634759597,1.2831518909505661,1.2838353381841026,1.2841742527869944,1.28331456479711,2.0,2.0,3.0
1.4000000000000006,1.0464285498144419,1.0407074857196028,2.9831928863471893,1.5554985416237677,1.5217277392811757,0.019421159026649093,-0.036802451934575736,0.036866938006388066,0.000265207269021693,0.2138902750338473,-0.2279135821358499,0.0024900992610152606,0.021778690228218996,-8.864609956228956e-05,0.00017429039857465027,-0.00013191857775701155,1.2797663579778904,1.281041094062663,1.2817889464250976,1.2803822917625682,2.0,2.0,3.0
1.4500000000000006,1.125238504758086,1.1178188499056687,2.9842500806643777,1.5761990988728813,1.542227283721318,0.021143886343768514,-0.02616187111505995,0.025578912296969892,-3.644615791713072e-06,0.21269567934875067,-0.22577520887678382,0.0024672117105102418,0.011798791958005834,-0.00014061390361106742,0.00024082795195761562,-0.00010087155251442639,1.2768078318177505,1.2786099187488595,1.2797419999375097,1.2778390414538863,2.0,2.0,3.0
1.5000000000000007,1.2048025614419637,1.1956911591886388,2.985361892764236,1.5912811336775556,1.5574461856594013,0.022236241997166672,-0.015633428772977954,0.014445572572580553,-0.00015128319885314266,0.21056073425707938,-0.22263767790755662,0.002432997828796926,0.00343974903051022,-0.00018880207055722246,0.00030062061619132526,-8.293369815591954e-05,1.2742982757331336,1.2765692751624504,1.2780630656311995,1.2757091325037266,2.0,2.0,3.0
1.5500000000000007,1.2848442413733128,1.2740635266911138,2.9864982388272954,1.6008335986269806,1.5674473500495,0.022726921261186916,-0.005257926061631514,0.003513097009835367,-0.00018171817519009012,0.20755424638128506,-0.21860256388522178,0.002388940968317024,-0.003244181321004652,-0.00023345237991724972,0.000354319986864644,-7.771687940149527e-05,1.272247720940438,1.2749344008612347,1.2767690468387605,1.2740046500385624,2.0,2.0,3.0
1.6000000000000008,1.3650924723851996,1.3526791376829634,2.987631035123174,1.6049646202377366,1.5723122198369932,0.022655925917574038,0.004926829336896311,-0.007177022106424758,-0.00010067575072266094,0.2037403481582803,-0.21376171898631757,0.002336495289707836,-0.008241638423018085,-0.0002747619911239816,0.00040252400077115573,-8.463953848505757e-05,1.2706558041561933,1.2737098228544208,1.2758656964015405,1.2727270381648275,2.0,2.0,3.0
1.6500000000000008,1.4452824101158126,1.4312860754837415,2.9887346271413455,1.60379875461226,1.572138756015562,0.02207184036342902,0.014885749574765232,-0.01758757087031133,8.465454746928782e-05,0.1991793539018199,-0.2081980414753401,0.002277065847140521,-0.01157804105912486,-0.0003128912055513378,0.00044577540281695723,-0.00010295423120515424,1.2695132797992958,1.2728908442438238,1.2753491767867444,1.2718686581110112,2.0,2.0,3.0
1.7000000000000008,1.5251561477558189,1.5096380646300014,2.9897860973248447,1.5974747528001254,1.567039782925197,0.021029403669983182,0.024586250904009257,-0.027685235957942464,0.000365860110940356,0.19392846867653873,-0.20198626252060564,0.002211994859945085,-0.01330978992159513,-0.00034797019329015636,0.0004845605682696711,-0.00013177396672040575,1.2688034546206668,1.272464956623996,1.275207537401896,1.2714142614318462,2.0,2.0,3.0
1.7500000000000009,1.6044633360765694,1.5874951465105538,2.990765466982138,1.5861437664150113,1.557141637611048,0.01958739314586566,0.033998087822764665,-0.0374402578127625,0.0007335331904815551,0.18804237012200134,-0.19519375133686903,0.002142552829473193,-0.013518907962842332,-0.0003801048682332121,0.0005193091378875949,-0.00017009736891329962,1.2685035127125919,1.2724131497041933,1.275422081990444,1.271342347629929,2.0,2.0,3.0
1.800000000000001,1.6829617322872896,1.6646242997352894,2.991655807748803,1.5699679242144038,1.5425830644947114,0.017806815333303305,0.04309322966155417,-0.046826115803319135,0.0011774871655226987,0.18157367987801043,-0.187881329989806,0.002069933314619122,-0.012308177575033207,-0.00040938205541546493,0.0005503946718249443,-0.00021683268093895038,1.2685857148255522,1.2727111036529666,1.2759686127274013,1.2716263912190475,2.0,2.0,3.0
1.850000000000001,1.7604176929463642,1.7408000147845801,2.9924432770861884,1.5491192131814913,1.5235143009858154,0.01574938674770543,0.051845772716388586,-0.05581924581496601,0.0016869616490729955,0.17457333837766817,-0.18010408463828134,0.001995250340182321,-0.009796788856841926,-0.00043587405204668944,0.0005781363539773211,-0.00027082062759601326,1.2690184679195193,1.2733302603286238,1.2768185479658578,1.2722359349291577,2.0,2.0,3.0
1.900000000000001,1.8366066230589186,1.8158048300452219,2.99311709099343,1.523778602251089,1.5000963052128347,0.013476278144830545,0.06023188155118871,-0.06439879010999468,0.0022508167529325484,0.16709089461845644,-0.17191215842519617,0.0019195375839011048,-0.006116481756985944,-0.00045964264775742074,0.0006028016671809542,-0.0003308561368211489,1.2697672693067343,1.274238777139716,1.2779399178831834,1.273137553913381,2.0,2.0,3.0
1.950000000000001,1.9113133906817468,1.8894298342038407,2.9936694455771233,1.4941353524565626,1.4725000831723767,0.011047091673868081,0.06822975358477133,-0.07254637866723472,0.0028577166256584354,0.15917472104945304,-0.1633515116578213,0.0018437486536073662,-0.0014081446097938865,-0.0004807426442551676,0.000624609896754115,-0.0003957089046384014,1.2707955351467524,1.2754023722079264,1.27929824700067,1.2742957010348577,2.0,2.0,3.0
2.000000000000001,1.9843327138506954,1.961475138145882,2.9940953975272375,1.4603864633789732,1.4409060788408246,0.00851903900228379,0.07581960155577096,-0.08024594065279769,0.003496302158789894,0.15087216276792745,-0.15446463655875053,0.001768757930847149,0.004181179592932629,-0.0004992248994701361,0.0006437362919825483,-0.00046414277036534114,1.2720653260083143,1.2767850722537666,1.2808573351733348,1.2756734461575172,2.0,2.0,3.0
2.0500000000000007,2.055469524448766,2.0317503179883816,2.9943927120024396,1.422736211961415,1.405503596849993,0.005946289504041857,0.08298364892921889,-0.08748354420830035,0.004155352555058998,0.14222962963628383,-0.14529121612943147,0.0016953616050333548,0.010500931997610832,-0.0005151389146869031,0.0006603167107551157,-0.0005349338523456167,1.2735379832877123,1.2783498756750404,1.2825799496372663,1.2772331233975924,2.0,2.0,3.0
2.1000000000000005,2.124539311736648,2.100074829639,2.994561685009692,1.3813957457576365,1.3664902330123674,0.003379460145049862,0.089706133773946,-0.09424726238079498,0.004823935281035889,0.13329263952381162,-0.13586871914705406,0.0016242786529190355,0.01739937353610037,-0.0005285349815232487,0.000674452582716198,-0.0006068873806631914,1.2751746899821161,1.2800593430819092,1.2844284404762658,1.2789368999958093,2.0,2.0,3.0
2.1500000000000004,2.1913684466554035,2.166278394298199,2.9946049461179722,1.3365826983751106,1.3240712931839838,0.000865222165602475,0.09597331710278256,-0.10052706275511075,0.005491543796945581,0.12410582055488618,-0.12623292573572015,0.0015561516313841587,0.02472566463270957,-0.0005394659075073145,0.0006862160436726177,-0.0006788531534147439,1.2769369680958391,1.28187612647046,1.2863652907972232,1.280747279269188,2.0,2.0,3.0
2.2,2.2557944866649757,2.230201353580256,2.9945272462962578,1.2885208001914439,1.2784591856411343,-0.0015539964342892176,0.10177349212800234,-0.10631471817309751,0.006148222375088824,0.11471287991405657,-0.11641838017391831,0.0014915472413985448,0.03233172938677325,-0.0005479883422376979,0.0006956551140152901,-0.0007497395377009829,1.2787871231686072,1.2837634465844898,1.2883536112936302,1.2826275483400464,2.0,2.0,3.0
2.25,2.3176664597831524,2.291694992396527,2.994335234815638,1.2374394623635343,1.2298727763254202,-0.003840229612395163,0.10709699134301554,-0.11160373582114402,0.0067846772890588014,0.10515654639207137,-0.1064587695485024,0.001430956691540464,0.04007393668508884,-0.0005541637301468188,0.0007027988133097764,-0.0008185259361178231,1.2806886443343148,1.2856855260840234,1.2903575869762887,1.2845421792904625,2.0,2.0,3.0
2.3,2.3768451256201883,2.3506218273970836,2.994037228495455,1.183573316740718,1.1785367000111346,-0.005960126403659061,0.11193618879717832,-0.11638930192374461,0.007392373679430663,0.09547849342266433,-0.09638722853467424,0.001374795941951262,0.0478146223966807,-0.0005580589196745449,0.0007076621204717327,-0.000884273644313541,1.2826065661635322,1.2876079841142347,1.292342881856965,1.286457190261949,2.0,2.0,3.0
2.3499999999999996,2.43320321054883,2.4068558585826687,2.9936429760860173,1.127161698572836,1.1246806237117024,-0.007885048188756016,0.11628549538297281,-0.12066823928495601,0.00796361747588647,0.08571924886538496,-0.0862365719856968,0.0013234059434837774,0.05542346875865608,-0.0005597464622238898,0.0007102507032329436,-0.000946135034887614,1.2845077964658598,1.2894981958963616,1.2942770054309125,1.2883404709655226,2.0,2.0,3.0
2.3999999999999995,2.486625613694531,2.4602827816583694,2.9931634202421726,1.0684480629140136,1.0685384615140148,-0.009591116876892514,0.12014134540165312,-0.12443897496268762,0.008491621876738666,0.07591809722807573,-0.07603945819851601,0.0012770530048800547,0.06277874972695358,-0.0005593046370424638,0.000710565352191174,-0.0010033610171993328,1.2863614123428317,1.2913256191587799,1.2961296430292446,1.2901620751960974,2.0,2.0,3.0
2.4499999999999993,2.537009580164029,2.510800158785564,2.992610459326488,1.0076793293899655,1.0103475425438901,-0.01105921831369372,0.12350217311213826,-0.12770151543711777,0.008970558048777692,0.06611297941068245,-0.06582848672078402,0.0012359294274747077,0.06976844473584051,-0.000556817240319288,0.0007086060641267685,-0.0010553067410651326,1.2881389251598188,1.2930620876671843,1.2978729505786346,1.2918944813302036,2.0,2.0,3.0
2.499999999999999,2.5842648378409683,2.5583175455835128,2.991996711160316,0.9451051535387833,0.9503477359589763,-0.012274963323442023,0.12636837839462067,-0.13045742674069274,0.009395589905851659,0.05634039439674315,-0.05563623541228643,0.0012001545409673407,0.0762912181872347,-0.0005523731780175203,0.0007043757270302793,-0.0011014355339704002,1.289814513795502,1.294682070851827,1.2994818130651007,1.2935128204748056,2.0,2.0,3.0
2.549999999999999,2.6283136941533503,2.6027565725210895,2.9913352807881854,0.8809771262476396,0.8887805387515346,-0.01322860744260801,0.1287422810703826,-0.13270981715195118,0.00976289304505907,0.04663530663641492,-0.04549524220331304,0.0011697762588224994,0.08225725819199964,-0.0005460659023574302,0.0006978833664553026,-0.0011413210854961263,1.2913652245547096,1.2961628976000792,1.3009340650840386,1.2949950709531726,2.0,2.0,3.0
2.5999999999999988,2.6690910894471847,2.6440509792079343,2.9906395343096834,0.8155479058766879,0.8258881337368962,-0.013914929570040258,0.13062806380698244,-0.1344633202182515,0.010069658155550987,0.037031062165913134,-0.03543793761070608,0.0011447732505342938,0.08758896564684142,-0.0005379927312345993,0.0006891469197590908,-0.0011746479182270103,1.2927711355028302,1.2974849416957095,1.3022106712797046,1.296322217168598,2.0,2.0,3.0
2.6499999999999986,2.706544603969657,2.682146600528196,2.989922880839121,0.7490702904494473,0.7619124264052335,-0.014333069411245347,0.1320317038976353,-0.13572407606348416,0.010314079456886756,0.027559315819114034,-0.02549653459234652,0.0011250578006104476,0.09222148365360476,-0.0005282540885861907,0.0006781955123482394,-0.0012012102103781848,1.294015482693171,1.298631766144507,1.3032958642388206,1.2974783705771065,2.0,2.0,3.0
2.6999999999999984,2.7406344159576594,2.7170013040443193,2.989198564655588,0.6817962397600486,0.697094070322466,-0.014486323670661605,0.13296089452858423,-0.13649970915553414,0.010495328961792255,0.01824997120713203,-0.01570288273540108,0.001110479394188069,0.096103057494802,-0.0005169527013183711,0.0006650712183881428,-0.001220909060790446,1.295084745793873,1.2995902237126176,1.3041772374839233,1.2984508505043886,2.0,2.0,3.0
2.7499999999999982,2.771333208924924,2.7485848786181246,2.9884794695862915,0.6139758593452882,0.6316714914761068,-0.014381901385931428,0.13342495643289976,-0.1367993009530579,0.010613517582520403,0.009131134502328653,-0.00608829407079346,0.0011008290361334714,0.09919521677375921,-0.0005041927854616186,0.0006498302976877903,-0.001233748310710766,1.295968690951312,1.3003505113935554,1.3048457915909228,1.299230222837969,2.0,2.0,3.0
2.799999999999998,2.798626026922669,2.776878874736458,2.9877779376098568,0.5458563599549038,0.5658799223666655,-0.014030639528694877,0.13343474106780964,-0.13663335611958802,0.01066964430225406,0.0002290824658115101,0.003316652018213355,0.0010958442807896364,0.10147277375855795,-0.0004900792504426091,0.0006325439107861263,-0.0012398290582041067,1.2966603693148493,1.3009061771764097,1.305295932093532,1.2998102951737673,2.0,2.0,3.0
2.849999999999998,2.8225100772912883,2.80187639757375,2.98710560356304,0.47768100737238584,0.49995045674584127,-0.013446680936333166,0.13300252664118073,-0.1360137612804862,0.010665534805396561,-0.008431755376672252,0.012482317297625941,0.0010952149165079491,0.10292363524404403,-0.00047471694613137873,0.000613298325103862,-0.0012393430189936465,1.297156070445624,1.3012540783600028,1.305525418685895,1.3001880677525224,2.0,2.0,3.0
2.8999999999999977,2.84299448119962,2.8235818543586317,2.9864732476775258,0.40968807816663677,0.43410913569763565,-0.012647117710287148,0.1321419084481179,-0.1349537355993564,0.010603771097428428,-0.01682880097153537,0.0213802192176759,0.0010985892241885415,0.1035484291625528,-0.0004582099726611848,0.0005921946363321332,-0.0012325649018271926,1.2974552307891978,1.301394291694685,1.3055352662429924,1.3003636404356778,2.0,2.0,3.0
2.9499999999999975,2.8600999730578778,2.8420106581217395,2.985890667460872,0.3421098371651521,0.36857607526215475,-0.011651604333078325,0.13086768505972324,-0.1334677727580404,0.010487613741842448,-0.024941319332806265,0.029983244384277078,0.0011055807033583597,0.10335995148665017,-0.0004406610682326563,0.0005693480403725607,-0.0012198439762567312,1.2975602984480146,1.3013299767704445,1.3053295992834393,1.3003400769847526,2.0,2.0,3.0
2.9999999999999973,2.8738585506646497,2.857188890373186,2.9853665701689627,0.2751715521354381,0.3035646450289331,-0.010481945838183293,0.12919574193325317,-0.13157157423018168,0.010320918396437355,-0.03275039874837586,0.038265854310915434,0.0011157751434757394,0.1023824434299023,-0.000422171085186272,0.0005448867016012449,-0.0012015950162010242,1.29747655658542,1.301067195243483,1.3049154626376316,1.300123228963368,2.0,2.0,3.0
3.049999999999997,2.8843130786825193,2.8691529256784936,2.984908486801887,0.20909056035739226,0.2392807061061486,-0.009161667341510693,0.12714293398894946,-0.1292819740340152,0.01010804834338037,-0.04023892106623203,0.046204277388457386,0.0011287379021625188,0.10065071332223244,-0.0004028385600069905,0.00051895027257044,-0.0011782888033632461,1.2972119088676397,1.300614689639577,1.304302592195158,1.299721522619858,2.0,2.0,3.0
3.099999999999997,2.891516848707832,2.8779490214604806,2.9845227081998362,0.14407540050625833,0.1759219156397407,-0.007715572041018248,0.12472696862796279,-0.12661685542689466,0.00985378467877677,-0.04739152366453107,0.053776681744348936,0.0011440212475234248,0.09820912156710954,-0.0003827593786329015,0.0004916881279424273,-0.0011504423711783862,1.296776631343898,1.2999836265270965,1.3035031506252466,1.2991457130708692,2.0,2.0,3.0
3.149999999999997,2.8955330997877664,2.883632876643241,2.984214243431694,0.08032502159868393,0.11367710365520978,-0.0061692953628433855,0.12196629055364115,-0.12359506025391832,0.009563235761004547,-0.054194554770881434,0.060963324516125406,0.0011611716186537117,0.09511045057899012,-0.0003620265344668753,0.00046325738108546593,-0.0011186091623947723,1.2961830960293759,1.2991873097642201,1.302531433841317,1.2984086109440776,2.0,2.0,3.0
3.1999999999999966,2.896434503725688,2.8862691629670296,2.9839868002698675,0.01802807875843193,0.052725726475770784,-0.00454886323653092,0.11887996961266666,-0.12023629187849269,0.009241747417619928,-0.06063602377690795,0.06774667401297287,0.0011797366633125275,0.09141468436545618,-0.0003407299734278257,0.0004338207549391967,-0.001083369262457047,1.2954454721440285,1.2982408702431012,1.3014035546699285,1.2975247873083984,2.0,2.0,3.0
3.2499999999999964,2.8943026198917634,2.885931032936442,2.9838427871449236,-0.04263767667849194,-0.006762600611756042,-0.0028802624988788494,0.11548759270058637,-0.11656101279812711,0.008894815283828425,-0.06670554812398262,0.07411150224426596,0.0011992719213506503,0.08718772433303525,-0.00031895651764217604,0.00040354437952113065,-0.0010453198570514752,1.2945794114430476,1.2971609390492997,1.300137110651996,1.2965102631886924,2.0,2.0,3.0
3.2999999999999963,2.8892273245125333,2.882699608418279,2.983783335587406,-0.10150590758460254,-0.06462849036325657,-0.0011890311503481854,0.11180916058707172,-0.1125903381798567,0.008528000497713694,-0.07239429820729411,0.08004494632740339,0.001219347035501119,0.08250006887570267,-0.0002967898575937695,0.00037259558656276167,-0.001005066046157241,1.293601724329863,1.295965311203421,1.2987508431310673,1.295382190211352,2.0,2.0,3.0
3.349999999999996,2.8813062195483234,2.8766634538824123,2.983808341805689,-0.1584220992841967,-0.120723090717334,0.0005001243656543863,0.10786499031793531,-0.1083459266341892,0.008146849815286529,-0.07769494158460324,0.08553653830948207,0.0012395513892795391,0.07742548432830003,-0.0002743106012166077,0.00034114076740183736,-0.0009632121295357483,1.2925300534659265,1.2946726071504036,1.2972642947629915,1.2941585289489788,2.0,2.0,3.0
3.399999999999996,2.870644026283371,2.8679180381836797,2.9839165257304106,-0.2132438652990487,-0.174908313974651,0.002163678494433441,0.10367562365189883,-0.10384986958415439,0.007756821038407494,-0.0826015875831331,0.09057820391098613,0.0012594990904974362,0.0720396939578486,-0.0002515963678854971,0.0003093433537317421,-0.000920353460321438,1.2913825513867838,1.2933019389160982,1.2956974723223014,1.2928577313326657,2.0,2.0,3.0
3.4499999999999957,2.8573519686571975,2.8565651886226813,2.9841055055882704,-0.2658411525234694,-0.22705699121996936,0.003779597157196335,0.0992617417975879,-0.09912458057859949,0.007363214476945006,-0.08710973319237204,0.09516423159261529,0.0012788332420075915,0.06641910990582392,-0.0002287219151814425,0.0002773619724616241,-0.000877068945099541,1.290177568221796,1.2918725873835666,1.2940705212036658,1.2914984330967958,2.0,2.0,3.0
3.4999999999999956,2.8415471511678545,2.8427125408073683,2.984371885858523,-0.31609634978686074,-0.2770529563062585,0.005327605405049951,0.0946440865365481,-0.09419268584963303,0.006971110998330323,-0.0912162109203567,0.09929121413316484,0.0012972294611461263,0.060639630499370045,-0.00020575928666277847,0.00024534881610013056,-0.0008339142508348963,1.2889333550230786,1.2904036964830468,1.2924034173520242,1.290099161641221,2.0,2.0,3.0
3.5499999999999954,2.8233519358919703,2.8264729875760413,2.984711356319208,-0.3639043055176838,-0.3247910646265417,0.00678940921369886,0.0898433876565884,-0.0890769173281961,0.006585317057639856,-0.09491913908064557,0.10295796555830924,0.001314398632300454,0.05477552227484529,-0.00018277796970568122,0.00021344825946065173,-0.0007914157620375078,1.2876677874739657,1.2889139892811057,1.2907156815444758,1.2886780639752982,2.0,2.0,3.0
3.599999999999995,2.8028933228090835,2.8079641299471363,2.985118799808808,-0.40917226165773535,-0.37017715257809947,0.008148869792004021,0.08488029648020179,-0.08380000921520572,0.00621031695286224,-0.09821787477986965,0.10616541676577923,0.0013300888971421517,0.04889840257149794,-0.00015984505350038605,0.0001817957424893797,-0.0007500653157492332,1.286398113910313,1.2874215100408182,1.289026120033311,1.2872526585870565,2.0,2.0,3.0
3.649999999999995,2.7803023372059164,2.787307732743634,2.985588406311544,-0.4518197120633438,-0.4131279440700464,0.009392130054717285,0.0797753251577119,-0.07838459906537723,0.005850232415473162,-0.10111296969515998,0.10891649354448399,0.001344086903676601,0.043076334836294375,-0.00013702537847508397,0.00015051692810999867,-0.00071031572755206,1.2851407306925575,1.2859433953527046,1.2873525945893662,1.2858396142016668,2.0,2.0,3.0
3.699999999999995,2.755713427487795,2.764629187211476,2.9861137910170656,-0.49177819436242665,-0.4535709106431618,0.010507694110435395,0.07454879130570335,-0.07285313418414743,0.005508789527558842,-0.10360612856473488,0.11121598087700504,0.001356218353745417,0.037373045012513234,-0.0001143816698972828,0.00011972713381735363,-0.0006725771092441454,1.283910987054614,1.2844956764524331,1.2857118240062648,1.284454557499202,2.0,2.0,3.0
3.7499999999999947,2.729263876256616,2.7400569826227814,2.986688114101961,-0.5289910246235774,-0.49144409177388937,0.011486461697902683,0.06922076750787852,-0.0672277839722446,0.005189292853730224,-0.10570017018073319,0.11307037745848202,0.0013663478983024725,0.03184726371818292,-9.197464963989041e-05,8.953102656665321e-05,-0.0006372139676929939,1.2827230206668285,1.283093113887341,1.2841192181761096,1.2831119109879046,2.0,2.0,3.0
3.7999999999999945,2.70109322704387,2.7137221885355767,2.987304200123432,-0.5634129842549207,-0.5266958817440948,0.012321720429424587,0.06381103515745805,-0.06153035868413156,0.004894606589078446,-0.1073989905515374,0.11448774427327374,0.001374378441765217,0.026552195504407253,-6.986312171693696e-05,6.002256253672706e-05,-0.0006045430651251932,1.2815896243183307,1.2817490648052812,1.2825887449664357,1.2818247614143599,2.0,2.0,3.0
3.8499999999999943,2.671342728627632,2.68575794908043,2.987954655095887,-0.59500996832476,-0.559284789102934,0.013009099449101669,0.058339042105268815,-0.05578223490234526,0.004627142452404941,-0.10870752781615711,0.11547755085137375,0.0013802499222705972,0.021535113419614213,-4.810402839115475e-05,3.1285147151130585e-05,-0.0005748320132741548,1.2805221433753673,1.2804753823468158,1.2811328293410773,1.2806047583563542,2.0,2.0,3.0
3.899999999999994,2.6401547984265403,2.656298990367554,2.9886319795294916,-0.6237586040218357,-0.5891791742575236,0.013546488672089296,0.05282386358396581,-0.05000428787470148,0.004388853995785507,-0.1096317284217126,0.1160505225131426,0.0013839376388749582,0.016837074478939125,-2.675247514837502e-05,3.3919859803896435e-06,-0.0005482985674654956,1.2795304030264905,1.279282345942607,1.279762283496712,1.2794620420131302,2.0,2.0,3.0
3.949999999999994,2.607672506061434,2.6254811418605897,2.989328675936502,-0.6496458473021249,-0.6163569701392824,0.01393392814020622,0.04728416590322498,-0.044216830719745026,0.004181236955544939,-0.11017851403516075,0.11621849151998229,0.00138545019679774,0.012492749489081426,-5.8617240050448545e-06,-2.3593405946717247e-05,-0.0005251105815727781,1.2786226637943625,1.2781786207655244,1.2784862662409648,1.27840519868823,2.0,2.0,3.0
3.999999999999994,2.574039077814155,2.593440872348732,2.9900373495473076,-0.6726685649455799,-0.6408053902371513,0.014173472216114646,0.04173817245029659,-0.03843956038122277,0.0040053352344003555,-0.11035574864016968,0.11599425459754195,0.0013848271424187464,0.008530359028973257,1.4516844217646288e-05,-4.9616570237385476e-05,-0.000505386580846221,1.2778056033811283,1.277171244165802,1.2773122694237815,1.2774412420582617,2.0,2.0,3.0
4.049999999999994,2.5393974223978995,2.5603148409688385,2.99075080121535,-0.6928331083251127,-0.6625206275978712,0.014269033360845285,0.0362036315818905,-0.03269151010636905,0.0038617520780049866,-0.11017220526996993,0.11539143882601897,0.001382136354877491,0.004971706220581353,3.4333796937055706e-05,-7.463138065049929e-05,-0.0004891969064468564,1.2770843226186321,1.2762656366219436,1.2762461289448819,1.2765756180351238,2.0,2.0,3.0
4.099999999999993,2.503889678187362,2.526239463583873,2.9914621117213294,-0.7101548842107519,-0.6815075476993115,0.014226210119590021,0.03069778605368418,-0.02699100813695825,0.0037506659898999552,-0.10963753184871383,0.11442437740141023,0.001377471257125284,0.0018322962095880194,5.3541743559136695e-05,-9.859926075384707e-05,-0.00047656538320168233,1.2764623731070937,1.27546563456354,1.2752920576893012,1.2758122308496533,2.0,2.0,3.0
4.149999999999993,2.467656781840337,2.4913504947125165,2.99216471690656,-0.7246579269404929,-0.6977793774271301,0.01405210370461596,0.025237343699848962,-0.021355642236220454,0.0036718509155575607,-0.10876221565127492,0.11310799629698984,0.001370947904709561,-0.0008784680383050062,7.209545253315877e-05,-0.00012148837433292517,-0.0004674714604155963,1.2759418040357822,1.2747735423491668,1.2744526976752735,1.2751534879014728,2.0,2.0,3.0
4.199999999999993,2.4308380580744844,2.4557826251248063,2.992852473268516,-0.7363744753170565,-0.7113573917542038,0.01375512723911676,0.019838449143993745,-0.01580222962840546,0.0036247002174390436,-0.10755754594507048,0.11145771240104183,0.0013627020028113585,-0.0031570239936198397,8.995198767552357e-05,-0.00014327281617470018,-0.0004618527742763674,1.2755232256715112,1.2741902006984136,1.2737291887188171,1.2746003609176382,2.0,2.0,3.0
4.249999999999993,2.3935708302410337,2.4196690951674467,2.993519713835504,-0.7453445566690142,-0.7222705991471923,0.01334481133976162,0.014516656392488782,-0.010346791899727212,0.003608253958022767,-0.10603557443961167,0.10948934329221213,0.0013528858976919536,-0.005005331943242663,0.00010707085912756893,-0.000163931827335892,-0.00045960807965348007,1.2752058870589622,1.2737150689627057,1.2731212510092436,1.2741524610258466,2.0,2.0,3.0
4.299999999999993,2.3559900512578045,2.3831413238563526,2.9941612943001683,-0.751615579664584,-0.7305554262218816,0.01283160929328453,0.009286902228534242,-0.005004534397816297,0.00362122900570522,-0.10420907325122512,0.10721902844817978,0.0013416655811083285,-0.006430511062748225,0.0001234141841635977,-0.0001834490552538539,-0.00046060049854988614,1.274987765587479,1.2733463187593284,1.2726272791304218,1.2738081254600226,2.0,2.0,3.0
4.3499999999999925,2.3182279544224893,2.3463285537691316,2.994772629532601,-0.7552419367063035,-0.736255401744419,0.012226704648652387,0.004163480389248418,0.00021017033016278148,0.0036620514790024366,-0.1020914901679493,0.10466316136650058,0.0013292177410724137,-0.0074444381122151255,0.00013894685270396785,-0.00020181187503768238,-0.00046466103231168436,1.2748656662213382,1.2730809366664309,1.27224444523871,1.2735645137613059,2.0,2.0,3.0
4.399999999999992,2.280413723618758,2.3093575117825647,2.9953497207134303,-0.756284616074625,-0.7394208397313395,0.011541823616587621,-0.0008399834334970357,0.005283795505242359,0.003728891047333748,-0.0996969010896013,0.1018383318186411,0.0013157268877252075,-0.008063316962405451,0.0001536366924352408,-0.00021901078437801838,-0.00047159228483139415,1.2748353283568112,1.2729148338730265,1.2719688093044017,1.2734177115033554,2.0,2.0,3.0
4.449999999999992,2.242673182447173,2.272352085725452,2.9958891734265642,-0.7548108234317041,-0.7401085211422487,0.010789054262678732,-0.00571055567586399,0.01020366990930296,0.0038196966116907545,-0.09703995960681816,0.09876127725611747,0.0013013825768950508,-0.008307226412125408,0.00016745462851100093,-0.0002350388807676344,-0.0004811723442881871,1.2748915384418047,1.2728429608791405,1.2717954345242766,1.2733628397426529,2.0,2.0,3.0
4.499999999999992,2.205128501854599,2.2354330170516237,2.9963882071318317,-0.7508936118514775,-0.738381373476571,0.009980674105349863,-0.010436017931546521,0.014957984888356111,0.003932232895963317,-0.09413584377379161,0.09544884224068038,0.0012863767522911943,-0.008199653015922157,0.00018037483313632918,-0.00024989142619895284,-0.0004931587717384158,1.2750282466671667,1.2728594255413055,1.2717185062107415,1.2733941685648642,2.0,2.0,3.0
4.549999999999992,2.167897925894687,2.198717609677497,2.9968446565016693,-0.7446115191982372,-0.7343081474825297,0.009128987396751498,-0.015004888754760875,0.01953579891282492,0.0040641174895428385,-0.09100020021120314,0.09191794467291517,0.0012709012212856286,-0.007767014947125298,0.00019237486056376604,-0.000263565501242841,-0.0005072926457264425,1.2752386862008296,1.2729576129453293,1.2717314526484709,1.273505233258245,2.0,2.0,3.0
4.599999999999992,2.1310955153227615,2.1623194551700227,2.9972569651553425,-0.7360482114385114,-0.7279630901494905,0.00824617307346287,-0.019406444035953537,0.02392703999805429,0.004212857894570015,-0.08764908576048727,0.08818554754965982,0.0012551452794534027,-0.007038182284728947,0.00020343576364897367,-0.00027605974765234677,-0.0005233026135221593,1.2755154935872035,1.2731303057600396,1.2718270665771931,1.273688951790835,2.0,2.0,3.0
4.6499999999999915,2.0948309088064647,2.1263481745109227,2.997624172361317,-0.7252921303259363,-0.7194256131819987,0.007344144119487694,-0.023630735730440056,0.028122506242773525,0.0043758881468488695,-0.08409890698072352,0.08426863497356536,0.0012392934948529317,-0.006043998559161514,0.00021354218858287563,-0.00028737419608158415,-0.000540908901172722,1.2758508290649817,1.273369803875306,1.2719976261060242,1.2739377423945268,2.0,2.0,3.0
4.699999999999991,2.0592091016142122,2.090909176699215,2.9979458933052916,-0.7124361438450499,-0.7087799562341512,0.006434418879495141,-0.027668608709751696,0.03211386469709329,0.004550604598412462,-0.08036635784304504,0.08018419117326095,0.0012235236627077682,-0.004816807909919882,0.0002226824450329803,-0.00029751017344683444,-0.0005598272366665413,1.2762364956719938,1.2736680422579154,1.2722350139913796,1.2742436401687913,2.0,2.0,3.0
4.749999999999991,2.024330241723019,2.0561034344837394,2.9982222935401435,-0.6975771978238665,-0.6961148443095144,0.005528004697037403,-0.03151171550340801,0.03589364872604562,0.004734400472072511,-0.0764683560321221,0.07594918135750217,0.0012080049389732801,-0.0033899918114891478,0.00023084854963342913,-0.00030647028269951374,-0.0005797726429206786,1.2766640561014462,1.2740167060669128,1.2725308343142696,1.2745984117058826,2.0,2.0,3.0
4.799999999999991,1.9902894433619172,2.022027277538974,2.9984540582461925,-0.6808159672220349,-0.681523138895308,0.004635294120980404,-0.03515252870466255,0.039455253990923554,0.0049246988241964055,-0.0724219783067433,0.07158053332096957,0.0011928961608944182,-0.00179751899123947,0.00023803624147496026,-0.0003142584464359323,-0.0006004630601889826,1.2771249463553562,1.27440734216037,1.2728765256791188,1.2749936668139161,2.0,2.0,3.0
4.849999999999991,1.9571766180740142,1.9887722034093183,2.998642356937235,-0.6622565057580587,-0.6651014825931156,0.0037659738208528637,-0.038584350826715706,0.04279293312959913,0.005118983581401283,-0.06824439539842915,0.06709511883315358,0.001178344361808212,-7.351189320483741e-05,0.0002442449688311823,-0.0003208800047003978,-0.0006216227607508663,1.2776105853073927,1.2748314661985527,1.2732634701263807,1.2754209664744696,2.0,2.0,3.0
4.899999999999991,1.9250763234365824,1.956424706548269,2.9987888042507276,-0.6420058927486361,-0.6469499372209864,0.0029289462698489643,-0.04180132141553478,0.045901789179506575,0.005314828349683124,-0.063952806947771,0.0625097339746312,0.0011644834855099912,0.0017481671861481994,0.0002494778471334397,-0.000326341856648555,-0.0006429855223374725,1.2781124793455139,1.2752806646101253,1.2736830970087294,1.2758719262217804,2.0,2.0,3.0
4.94999999999999,1.894067629622376,1.9250661257687696,2.9988954174601177,-0.6201738762841291,-0.6271716155899876,0.00213226418780188,-0.04479842125075594,0.048777767753642017,0.005509922730605052,-0.05956437698303978,0.05784107772819878,0.001151433305874834,0.003634307360718129,0.0002537415888094877,-0.0003306526352913621,-0.0006642975308106576,1.2786223213155778,1.2757466907402388,1.274126981130187,1.2763383141747149,2.0,2.0,3.0
4.99999999999999,1.8642240040149982,1.8947725103992812,2.9989645713440582,-0.5968725121475549,-0.6058723073897676,0.0013830776788115173,-0.047571473496311904,0.05141764795138574,0.0057020959180937225,-0.05509617043991104,0.05310572828555829,0.0011392985551864317,0.005552715070719639,0.0002570464062066091,-0.00033382290444482026,-0.0006853199868772852,1.279132083036136,1.2762215545469675,1.274586934492663,1.2768121429949537,2.0,2.0,3.0
5.04999999999999,1.8356132141054922,1.8656145054067532,2.9989989510412864,-0.572215798190121,-0.5831600998505593,0.0006875939445638579,-0.05011714169638288,0.05381903196239817,0.005889337390763596,-0.05056509120292435,0.048320116683146785,0.0011281682637451682,0.007472552090888738,0.0002594058892849192,-0.00033586536704711576,-0.0007058313962181238,1.279634100703823,1.2766976052591976,1.2750550910397307,1.2772857550881376,2.0,2.0,3.0
5.09999999999999,1.8082972488957647,1.8376572557031459,2.9990015035113227,-0.5463193041945491,-0.5591449940721471,5.104940072442332e-05,-0.05243292454925018,0.05598033330385825,0.006069814557974535,-0.04598782212622651,0.04350049753964357,0.0011181153122820117,0.009364643267178011,0.0002608368603414812,-0.00033679507448701457,-0.0007256295272150924,1.2801211525633234,1.277167606457508,1.2755239838338734,1.2777519004124736,2.0,2.0,3.0
5.14999999999999,1.7823322590167503,1.8109603297970156,2.998975388209563,-0.5192997975802882,-0.5339385181226053,-0.0005223060351955411,-0.05451714743024848,0.05790076361873869,0.006241887262274289,-0.04138076745218224,0.03866291681653429,0.0011091961952490782,0.011201751845033796,0.0002613592082668269,-0.00033662962708362783,-0.0007445330252960642,1.280586528276623,1.2776248030941009,1.2759866141585423,1.2782038063157684,2.0,2.0,3.0
5.1999999999999895,1.7577685157357283,1.7855776628869506,2.998923927570604,-0.4912748656204391,-0.5076533382012993,-0.0010292127791799999,-0.056368950674587116,0.05958031795584266,0.006404119086009632,-0.03675999800710827,0.033823176668124094,0.001101450993471191,0.012958820506066896,0.00026099570522610487,-0.00033538935666756306,-0.0007623826779875501,1.2810240894956049,1.278062980028399,1.2764365120964227,1.2786352388856408,2.0,2.0,3.0
5.249999999999989,1.734650388978568,1.761557519420379,2.9988505578752647,-0.4623625351432059,-0.4804028693314333,-0.0014673939067844088,-0.057988274670087055,0.061019758450908984,0.006555285454727781,-0.032141199503294596,0.02899679758318433,0.0010949035502533658,0.014613176529850768,0.00025977180878479505,-0.0003330974832240684,-0.0007790423296065841,1.281428321222591,1.2784765117252948,1.2768677882071382,1.2790405553748274,2.0,2.0,3.0
5.299999999999989,1.7130163444299857,1.738942475060887,2.998758781054401,-0.4326808909716462,-0.4523008871898382,-0.0018355364172695232,-0.059375841848082825,0.06222059633178394,0.006694378573953145,-0.02753962422566165,0.024198978138629135,0.0010895618438575266,0.016144699837073145,0.00025771545266129744,-0.00032978023856558477,-0.0007943994493979033,1.281794373634029,1.278860402843441,1.277275176009207,1.279414747350397,2.0,2.0,3.0
5.349999999999989,1.6928989596996729,1.7177694179211052,2.998652117955942,-0.40234769460625763,-0.42346114279563807,-0.002133261969179401,-0.06053313569687437,0.06318507217956523,0.006820609278219595,-0.022970046325898143,0.019444552797498668,0.0010854185472858294,0.017535953048319806,0.0002548568292899889,-0.0003254669514257182,-0.000808365361577812,1.2821180941436887,1.279210319528856,1.2776540650612602,1.2797534743145154,2.0,2.0,3.0
5.399999999999989,1.6743249594560676,1.6980695688281255,2.998534063570256,-0.37148000487210453,-0.3939969818595923,-0.0023610877137247854,-0.06146237695535011,0.06391613439072824,0.0069334059110410465,-0.01844672088961279,0.01474794826666872,0.0010824517623367847,0.018772273113474888,0.0002512281672846603,-0.0003201900894954213,-0.0008208751500404424,1.2823960495919562,1.2795226113285096,1.2780005245398018,1.280053087653208,2.0,2.0,3.0
5.449999999999989,1.6573152693347353,1.6798685202958983,2.998408044672844,-0.3401938024266471,-0.3640209706445452,-0.0025203779482385613,-0.062166497174248186,0.0644174158025552,0.0070324103913416815,-0.013983346889182848,0.01012313900542147,0.0010806259147381424,0.019841824518614874,0.0002468635068396378,-0.0003139852554778621,-0.000831887254600823,1.2826255385676022,1.2797943237443181,1.278311317319006,1.2803106448876889,2.0,2.0,3.0
5.4999999999999885,1.6418850883269371,1.6631862937859245,2.9982773803025355,-0.30860362015596277,-0.33364453019947504,-0.0026132874061701727,-0.06264910985814619,0.06469320846469928,0.007117471654922209,-0.009593034078606035,0.005583602524586083,0.0010798927930063245,0.020735614546041153,0.00024179847583919237,-0.0003068911355677139,-0.0008413827791803237,1.2828045939905628,1.280023201558144,1.278583904672048,1.2805239143252864,2.0,2.0,3.0
5.549999999999988,1.6280439792484458,1.6480374147454753,2.998145245447801,-0.27682218156982685,-0.3029775808089852,-0.002642697094694668,-0.0629144794224268,0.06474843656287808,0.007188636688492566,-0.005288273837190764,0.0011422751477210857,0.001080192713284971,0.021447471555594542,0.00023607006923482537,-0.0002989494001865521,-0.0008493645355661763,1.2829319762128726,1.2802076831744238,1.278816441832708,1.2806913703355909,2.0,2.0,3.0
5.599999999999988,1.6157959767814298,1.634431004823168,2.9980146382640287,-0.24496004934031923,-0.27212819844614433,-0.002612143675442269,-0.06296748821576982,0.0645886275257109,0.007246139398131741,-0.0010809139215966436,-0.00318849108314397,0.0010814557899781047,0.021973987737139287,0.00022971643393903285,-0.00029020455816178184,-0.0008558558490013513,1.28300715702,1.2803468863404086,1.2790077647730704,1.2808121796036607,2.0,2.0,3.0
5.649999999999988,1.6051397124757032,1.6223708905766496,2.9978883510909906,-0.21312528611453274,-0.24120228493036855,-0.0025257434607617313,-0.06281360187002942,0.0642198813717507,0.007290387573497174,0.0030178629565303125,-0.00739696968410542,0.0010836032906940954,0.022314428261808496,0.00022277666115333217,-0.0002807037667715101,-0.0008608991539871729,1.2830302950382753,1.2804405857168857,1.279157368669623,1.2808861788370254,2.0,2.0,3.0
5.699999999999988,1.596068555992266,1.611855727907719,2.9977689454829664,-0.18142312966874297,-0.210303253378612,-0.0023881121604851785,-0.06245883324570382,0.06364883838007271,0.007321948223596108,0.006997556845977419,-0.011472098541774455,0.0010865490542792049,0.02247060920909865,0.00021529058771311508,-0.00027049660125182085,-0.0008645544103144992,1.2830022031701032,1.2804891828783935,1.2792653786396033,1.2809138445209989,2.0,2.0,3.0
5.749999999999988,1.5885707717740076,1.6028791413878032,2.9976587314049596,-0.14995568436516837,-0.17953173039831682,-0.0022042815601341914,-0.061909705242718806,0.06288264519350528,0.007341531569232025,0.01084836471310343,-0.015403515659837986,0.0010902009479218675,0.022446747058177702,0.00020729860769503995,-0.00025963478833116653,-0.0008668973702659883,1.282924308784135,1.2804936694195312,1.279332513430087,1.2808962554244245,2.0,2.0,3.0
5.799999999999987,1.5826296902378014,1.5954298775723685,2.9975597506879734,-0.1188216307241241,-0.14898527630869296,-0.001979614339724378,-0.061173212743107566,0.061928919487988246,0.007349973981691622,0.014561191214857761,-0.01918159129791598,0.0010944623423669595,0.022249282896676492,0.00019884149514796018,-0.00024817190916855093,-0.000868017728556114,1.2827986074806024,1.2804555839304124,1.279360042832014,1.280835048653648,2.0,2.0,3.0
5.849999999999987,1.5782238925007936,1.5894919713473796,2.997473764775536,-0.08811595474015554,-0.11875812449977818,-0.0017197182487471707,-0.060256783944825566,0.06079571336395396,0.007348220156727119,0.018127656279457442,-0.022797456032675533,0.0010992335816895995,0.021886684802117452,0.00018996023847006233,-0.0002361630777142725,-0.0008680171864120936,1.2826276113286106,1.2803769636760642,1.2793497396656544,1.2807323701317888,2.0,2.0,3.0
5.899999999999987,1.5753274075829038,1.585044924305096,2.997402246733568,-0.057929698357797044,-0.08894094084567428,-0.0014303608393628764,-0.05916824133491914,0.0594914756354373,0.007337304807987735,0.021540099697008843,-0.02624302435326648,0.0011044134276264308,0.021369232090513182,0.00018069588670203792,-0.00022366460093845706,-0.0008670074607957138,1.2824142925325985,1.2802602918719048,1.2793038272430561,1.280590820442954,2.0,2.0,3.0
5.949999999999987,1.5739099209686835,1.5820638941105598,2.997346377437413,-0.02834973228440507,-0.0596206038907221,-0.0011173859230950711,-0.05791576253594539,0.05802501320926231,0.007318334154846497,0.02479158293037482,-0.029511013493831333,0.0011099004569442516,0.020708785288609123,0.00017108940765103711,-0.00021073362756466598,-0.0008651082686726111,1.2821620235247655,1.280108441486086,1.2792249232538755,1.2804133970238827,2.0,2.0,3.0
5.999999999999987,1.5739369933654341,1.580519893794364,2.9973070457944644,0.0005414479350118739,-0.03088000632391452,-0.0007866328589756222,-0.05650784124262174,0.05640545175979899,0.007292467466784246,0.027875888357273764,-0.03259495729965667,0.0011155943949259688,0.019918545773622107,0.0001611815575227753,-0.00019742779195461343,-0.0008624453149927286,1.2818745145009132,1.279924616520689,1.2791159810433945,1.280203433708626,2.0,2.0,3.0
6.0499999999999865,1.5753702884614158,1.5803799998915617,2.9972848528092753,0.028665901919633363,-0.0027978780560466987,-0.00044385970378257866,-0.05495324844686367,0.05464219591426969,0.007260898910344133,0.030787516149211686,-0.035489215016769646,0.001121397367411917,0.019012809034514036,0.00015101276157948522,-0.00018380485968905744,-0.0008591483112109276,1.2815557494182332,1.2797122917265584,1.2789802292546293,1.2799645386350935,2.0,2.0,3.0
6.099999999999986,1.5781678084681299,1.5816075683406086,2.997280119251303,0.05595040013428143,0.02455136898093624,-9.46711594451699e-05,-0.05326099412910235,0.05274488916894988,0.007224839925838263,0.033521678986990655,-0.03818897499315458,0.0011272150569446454,0.018006715442418893,0.00014062300510926163,-0.00016992238088585945,-0.0008553490491955244,1.281209921453654,1.279475151691473,1.2788211107921532,1.2797005315051388,2.0,2.0,3.0
6.149999999999986,1.5822841362238367,1.5841624570595545,2.9972928966441974,0.08232655511413611,0.051097774378918714,0.000255547857888061,-0.051440289572833364,0.05072337375831725,0.0071855023400242924,0.036074294800449117,-0.040690253364558386,0.0011329577520291932,0.01691600228127738,0.00013005173389901516,-0.00015583735694925778,-0.0008511795531670772,1.2808413688849507,1.2792170302087578,1.2786422220322717,1.2794153811552977,2.0,2.0,3.0
6.199999999999986,1.5876706826411182,1.5880012541286233,2.997322981260532,0.1077309283456307,0.07677594138137511,0.0006016923266916052,-0.0495005104382801,0.048587650696859185,0.00714408239821142,0.03844197770622322,-0.04298988788644916,0.0011385412782985538,0.015756760584052145,0.00011933776332237016,-0.0001416059256369242,-0.0008467703297520187,1.2804545123013715,1.2789418507854424,1.2784472531555309,1.2791131443417079,2.0,2.0,3.0
6.249999999999986,1.5942759382986265,1.5930775105280846,2.9973699307774093,0.13210511315016493,0.10152512798922597,0.0009389903375467412,-0.04745116071031666,0.04634784020755913,0.007101745875491877,0.04062202730342176,-0.04508552714406673,0.0011438878057705563,0.014545200062831998,0.00010851919506089771,-0.0001272830687392521,-0.0008422487337961027,1.280053793983004,1.2786535690873424,1.2782399304153103,1.278797906577176,2.0,2.0,3.0
6.299999999999986,1.6020457280050824,1.5993419764069872,2.9974330832268667,0.15539579412911841,0.12528931757805228,0.0012630489891485297,-0.045301837616082,0.04401414274195363,0.007059614402261012,0.04261241646769786,-0.04697561544102193,0.0011489265264852898,0.01329742510795413,9.76333405593234e-05,-0.00011292234573630684,-0.0008377374648395299,1.2796436202058739,1.2783561180447136,1.2780239610805229,1.278473725776844,2.0,2.0,3.0
6.349999999999985,1.61092346720095,1.6067428398909063,2.9975115778604318,0.17755478391735302,0.14801726967838214,0.0015698926713003658,-0.04306219758914694,0.04159680078473326,0.0070187531145282705,0.0444117777701649,-0.04865937371897844,0.0011535942010015452,0.012029224487472151,8.671665024840959e-05,-9.857565600195913e-05,-0.000833353206565939,1.2792283071398574,1.278053356259636,1.2778029817071621,1.2781445793808173,2.0,2.0,3.0
6.399999999999985,1.6208504191086057,1.6152259674743585,2.9976043775395587,0.1985390381531138,0.16966255166904531,0.0018559935825379625,-0.040741923340219414,0.039106061621528486,0.006980159714982022,0.0460193886293534,-0.0501367769026357,0.001157835572910379,0.01075587700057349,7.580464767279274e-05,-8.42930312661625e-05,-0.0008292054188172927,1.2788120309084592,1.2777490202662336,1.2775805103012363,1.2778143155246444,2.0,2.0,3.0
6.449999999999985,1.6317659515938192,1.6247351450848793,2.997710292262714,0.21831064970426972,0.1901835522104145,0.0021182944631092937,-0.03835069207933934,0.03655214123218409,0.006944755006852041,0.04743515528874306,-0.05140852809509591,0.0011616036540049034,0.00949197494795457,6.49318677267612e-05,-7.012245915738501e-05,-0.0008253952892309992,1.2783987822780818,1.2774466811014864,1.2773599028405116,1.2774866087278756,2.0,2.0,3.0
6.499999999999985,1.6436077927585437,1.6352123189499732,2.9978280034451936,0.23683682329449063,0.20954347730187894,0.002354223649589926,-0.03589814492150376,0.03394518945417096,0.006913374939506485,0.0486595956976941,-0.052476030063938923,0.0011648598837165245,0.008251266884712224,5.413179830310307e-05,-5.610973792140794e-05,-0.0008220148490078289,1.277992326341986,1.2771497055488557,1.2771443145248742,1.2771649204689968,2.0,2.0,3.0
6.549999999999985,1.6563122843458817,1.646597835444221,2.997956088578917,0.2540898317467599,0.22771032988495588,0.002561702674466204,-0.03339385749677397,0.031295256542097076,0.006886764182733561,0.049693821360072124,-0.053341354466244925,0.001167574168242534,0.007046520722103555,4.343682478057027e-05,-4.229836160671274e-05,-0.0008191462549314887,1.2775961674611331,1.276861222321308,1.2769366660273846,1.276852464912278,2.0,2.0,3.0
6.5999999999999845,1.6698146321012852,1.6588306791409242,2.998093045915747,0.27004695510806975,0.24465687393406377,0.0027391467366033595,-0.030847311777087237,0.028612261230295175,0.0068655712260187254,0.05053951820471393,-0.05400720925306736,0.0011697248068348065,0.005889407864437426,3.2878176868772665e-05,-2.8729434440817223e-05,-0.0008168612375333615,1.2772135196266834,1.276584093358372,1.276739614924302,1.27655217995508,2.0,2.0,3.0
6.649999999999984,1.6840491522982912,1.6718487083399338,2.9982373188387426,0.2846904039401199,0.2603605839801926,0.0028854584599091737,-0.028267869125273255,0.025905960386420665,0.0068503449799105914,0.05119892652166154,-0.05447690468079833,0.0011712983127266396,0.004790408699220823,2.248587748453763e-05,-1.5441612516226436e-05,-0.0008152207131441182,1.2768472823146326,1.2763208903233205,1.27655553239155,1.2762667036697182,2.0,2.0,3.0
6.699999999999984,1.6989495137011628,1.6855888873901008,2.998387319610422,0.29800722805743085,0.27480358100334,0.0030000154335851903,-0.025664744566984598,0.02318592032542105,0.006841532839032891,0.05167482000124234,-0.054754318333060305,0.0011722891388176561,0.0037587394185537647,1.2288693466057932e-05,-2.471070465504704e-06,-0.0008142745557186313,1.2765000218163818,1.2760738763041723,1.2763864851707545,1.2759983561272452,2.0,2.0,3.0
6.749999999999984,1.7144489742997504,1.699987515170476,2.998541452214856,0.3099892119717529,0.287972555607503,0.0030826520886861886,-0.0230469822831525,0.020461489835523643,0.006839480150309831,0.05197048390997803,-0.05484385952557738,0.0011726993163196473,0.0028022998391638676,2.314087999036986e-06,1.014850949818487e-05,-0.000814061522451298,1.2761739579500226,1.2758449926464752,1.2762342227307852,1.2757491265118814,2.0,2.0,3.0
6.799999999999984,1.7304806122127565,1.714980449138552,2.9986981340405063,0.32063275826012205,0.2998586793615221,0.0031336365130041344,-0.020423432319181915,0.017741774951292727,0.006844431015898857,0.052089692432093104,-0.054750433430629096,0.0011725380187125659,0.0019276416084863192,-7.411825162858146e-06,2.2385929030654967e-05,-0.0008146093257930607,1.275870955986672,1.2756358507778571,1.2761001694804681,1.2755206653634896,2.0,2.0,3.0
