time,x,y,z,vx,vy,vz,roll,pitch,yaw,p,q,r,delta_thrust,roll_torque,pitch_torque,yaw_torque,f0,f1,f2,f3,target_x,target_y,target_z
0.0,0.0,4.0,1.0,0.0,0.0,0.0,-0.0,0.0,-0.0,0.0,0.0,0.0,5.970396319834772e-16,-2.3062562375964596e-18,-0.0,-0.0,1.2753000000000003,1.2753000000000003,1.2753000000000003,1.2753000000000003,0.0,4.0,1.0
0.05,1.2605263973827163e-09,4.000000032570693,0.999999433246584,2.5210527947654325e-08,6.514138561897198e-07,-1.1335068319517916e-05,4.404030685455244e-05,-5.392877849951548e-06,3.449071021199096e-07,0.0008808061370910488,-0.00010785755699903097,6.898142042398192e-06,0.13832732982716817,0.0022150420144620123,0.015,-3.217951226617954e-07,1.2607089975765806,1.3760934520636345,1.3590548282345654,1.2436700519523884,0.17948996985214075,3.9859732836291557,1.005
0.1,-9.1531635968082e-06,4.000000992540219,1.000366129889142,-0.00018308848246411166,1.919939052186237e-05,0.00733393285115902,0.0009028175795088014,0.005922993934021508,-2.8502750227855734e-06,0.01717558689727938,0.11856773027368268,-6.399638841137316e-05,0.1380222501193403,0.0031222751616482823,0.015,2.9462579300042353e-06,1.2641212688947692,1.3795073574083496,1.3554883830359363,1.240105240780286,0.3577211122550178,3.963941592131968,1.01
0.15000000000000002,4.714298934414395e-05,3.999992718217673,1.0013933156730017,0.001125923058819043,-0.0001654864509159637,0.020543715677194818,0.004497607945329248,0.02255129271525013,-5.6300495496274687e-05,0.07188651664251841,0.33256694582765456,-0.0006431029933327364,0.11716830954427246,0.0027304244122661843,0.015,3.2704382123482275e-05,1.2573932259530995,1.3727941935287766,1.3517745766279752,1.2364063134344214,0.5343386383265053,3.9339894831125792,1.015
0.2,0.0004652324531256094,3.999916035792756,1.00303020164296,0.008361789275629309,-0.0015336484983397014,0.032737719399165144,0.010490298454210735,0.049956199029863174,-0.00028944765809762053,0.11971838520678534,0.5481129582468929,-0.00195891213743658,0.09652447278322661,0.002388349040664681,0.014096551997034636,0.00011282777480424723,1.2543713614199137,1.3628627906691204,1.3444344610842978,1.236055859609895,0.708992797625687,3.896217137920189,1.02
0.25,0.001808333910843989,3.9996478923319905,1.0051579312408456,0.026862029154367594,-0.0053628692153129265,0.04255459195771305,0.01873680660049568,0.08767264246778797,-0.0008959593878489794,0.16419517663594663,0.754410277738006,-0.0038846833801108203,0.080702608637486,0.00198058695745052,0.006145709965764239,0.00025980165319779884,1.2793909978679423,1.3267955907388815,1.3114304056242019,1.2642856144064605,0.8813395615610423,3.8507400807741767,1.025
0.3,0.004902886089942369,3.9990092661066394,1.0076403699837626,0.06189104358196759,-0.012772524507020933,0.04964877485833963,0.029073041790885042,0.13230916434851422,-0.0021190598315589506,0.20432170128842356,0.8930066785402525,-0.006326452700691436,0.07136529081501262,0.0015284182215277182,-0.0008125891336157424,0.000497006322072633,1.3020209455660943,1.2960187630839328,1.2840131966803756,1.29051238548461,1.0510412917985839,3.797688868207939,1.03
0.35,0.01078055326165196,3.9977693210148746,1.0103191692536186,0.11755334343419183,-0.02479890183529676,0.05357598539712072,0.04085504734092231,0.1786107231603298,-0.004069970684898206,0.23017565962649583,0.926701411345676,-0.007856419616689503,0.07057377068302864,0.0013617473766425214,-0.005270150814047331,0.0007782853980612449,1.3182561720546646,1.278105693107177,1.2672415705878195,1.3081703349333682,1.217767392390671,3.7372087496086017,1.035
0.39999999999999997,0.02056832814705828,3.995659000682251,1.013010965447774,0.19575549770812636,-0.042206406652471884,0.05383592388310543,0.05423620000918742,0.22247841652439349,-0.00690423037900651,0.2577020563871099,0.8787205245169758,-0.009022475287940113,0.08067372857696611,0.0009762670540108093,-0.007577385361380391,0.0011435479919027598,1.328081208282386,1.2703654025754112,1.2622838820101459,1.3211432357090231,1.3811949443855902,3.6694592996844717,1.04
0.44999999999999996,0.03537517233532919,3.992375981910936,1.0155250859757954,0.29613688376541825,-0.06566037542629743,0.05028241056042937,0.06889908401921079,0.2616068049797441,-0.010626423376767693,0.27808121333271507,0.7849649384995063,-0.009597289785254311,0.10298937752010037,0.0006433324835086018,-0.008590984612409622,0.0015839755425004153,1.3361679547094703,1.2708754454621847,1.26513474627933,1.332011231069116,1.5410093217196612,3.5946140237447897,1.045
0.49999999999999994,0.056224820256159436,3.987586232899618,1.0176940397867962,0.4169929584166049,-0.09579498022636024,0.04337907622001591,0.0844049420771494,0.29481762089144803,-0.015113792788525168,0.2898171651610932,0.6679289127629742,-0.009404371860474771,0.13691867882652028,0.00042942278930453086,-0.0088552851783009,0.0020785760581282,1.344720440952119,1.2776421506865607,1.273299610432077,1.3424564767557636,1.6969047872375225,3.5128599367270255,1.05
0.5499999999999999,0.08401989415486774,3.9809309101386527,1.0193947294947099,0.5559014779741661,-0.1331064552193073,0.0340137941582741,0.10069095083839566,0.3216640407624933,-0.020302994303937897,0.3009624305917904,0.5422700690089642,-0.009035628728297891,0.1803880135092066,8.584383901572411e-05,-0.008738805638555867,0.0026445538494426794,1.3536768244440625,1.2877775195337389,1.2857949053858198,1.3543387641455862,1.848585067732277,3.4243971169554785,1.055
0.6,0.11953311776103831,3.972030059668797,1.0205540609745276,0.7102644721234114,-0.17801700939711118,0.023186629596354535,0.11728319717276217,0.3421165832263564,-0.025965270776898506,0.30429179725840744,0.41613404829193246,-0.008278202001872641,0.2307567568212322,-0.00014615974763855643,-0.008452188961753275,0.0032475535631485467,1.3641235670226546,1.3007305056368959,1.3002310346063874,1.3668716495552944,1.9957639069451867,3.3294382356612147,1.06
0.65,0.16339802133277673,3.9604854264734097,1.0211632323045448,0.8772980714347683,-0.2308926639077491,0.012183426600342884,0.13381968891001367,0.35632831070856685,-0.03188813746408889,0.30247862180555923,0.29304590475226144,-0.007503352736182059,0.28423261350272644,-0.00032736789906079994,-0.008081840653898954,0.0038790203757363513,1.3752132934926635,1.3149847986505399,1.3155635030708317,1.3796710182886915,2.138165595514564,3.228208063337353,1.065
0.7000000000000001,0.21610844225567172,3.9458878409235214,1.0212635510906714,1.0542084184579,-0.2919517109977665,0.002006375722531928,0.15012876153974244,0.3645203372050254,-0.03789100707084069,0.29935251130239054,0.1743398623229055,-0.006324108847457935,0.337636124610048,-0.0005684020321799903,-0.007653627613310295,0.004502845840354881,1.3858341873121554,1.3292115516684075,1.3313324520726917,1.3924579335567941,2.275525476915234,3.120942954045278,1.07
0.7500000000000001,0.27801871932303135,3.927823566821206,1.020943938113112,1.2382055413471926,-0.3612854820463074,-0.006392259551186719,0.1658459885910535,0.3670630584537187,-0.04375591828888278,0.2912360493150541,0.06275364574355254,-0.005315528005354343,0.38771477942527344,-0.000738564926010917,-0.007246735113813353,0.005118227743372706,1.3959805617197154,1.3427955593312992,1.345917714121235,1.4042209442530242,2.407590428483364,3.007890308826461,1.075
0.8000000000000002,0.3493405089978197,3.9058777515584233,1.0203249224105593,1.4264357934957672,-0.4389163052556544,-0.012380314051054775,0.18061454875227992,0.36417187631308334,-0.049266024869619625,0.278233282763262,-0.044965194318159075,-0.004284681724129284,0.4320233212814067,-0.0008184824140996482,-0.006746026238803595,0.005692962705823974,1.4046808351235263,1.35563480694718,1.3590843441642653,1.4138233350464358,2.534119316676442,2.889308019411135,1.08
0.8500000000000002,0.4301424959826573,3.87964519713951,1.0195611095514197,1.6160397396967519,-0.5246510883782651,-0.015276257182792463,0.19422901404093967,0.35626652224152255,-0.05426207352408058,0.26264356495445085,-0.14473012161216933,-0.0029922326479205415,0.4678098866976275,-0.0008643177052229897,-0.006269777483535601,0.006199391822775258,1.4114928536353,1.3663634919810292,1.369912393802126,1.4212411472791724,2.6548834257746305,2.765463893449068,1.085
0.9000000000000002,0.5203509202197794,3.8487387321536772,1.018815402221832,1.804168484742441,-0.6181292997166565,-0.014914146591751276,0.20702118657372193,0.3437497000632968,-0.05883304171440671,0.25408708937723673,-0.23636675548459277,-0.002185001137744818,0.49382132181678184,-0.0011956187068382,-0.005817263816976987,0.006678136444953201,1.4148613544588755,1.3734522394738369,1.379310238227039,1.4273974896570307,2.769666859287471,2.6366350625189536,1.09
0.9500000000000003,0.6197532787583594,3.81278747834659,1.0182532147802026,1.9880471707716008,-0.7190250761417438,-0.01124374883259005,0.21813909955910174,0.3269266552289749,-0.0626333148798343,0.23000666408892795,-0.3231014363830531,-0.000968701673543156,0.5091371478399968,-0.0010723098993450965,-0.00527736748914445,0.007053782130145458,1.4169941398497683,1.3799258963829606,1.3846475430051577,1.428769568602111,2.878266913388889,2.503107374201614,1.095
1.0000000000000002,0.7280064854487814,3.771452051393908,1.018033879781571,2.165064133808441,-0.8267085390536444,-0.004386699972633856,0.22794857650926262,0.30618549939873685,-0.06579443097942679,0.21268645403336173,-0.40200440197147536,-8.039132597875947e-06,0.5133771198776386,-0.0011861335154396823,-0.004728888371747083,0.0073683455208223905,1.4154281738057712,1.3827362821681277,1.3881762133726372,1.428236450531103,2.980494421763496,2.3651747695280445,1.1
1.0500000000000003,0.8446362682055065,3.724428678580421,1.0183015259801818,2.3325956551345017,-0.9404674562697402,0.005352923972217205,0.23628784747695109,0.28193677546062,-0.06827675226337795,0.19177784149437493,-0.4731883933039852,0.0009675058759591594,0.5067752835413439,-0.0012148973742673516,-0.004160772495607812,0.0076062828749394185,1.4114225390948338,1.3832197382583973,1.3887619612383688,1.4245710449497448,3.0761740713081642,2.2231386471364316,1.105
1.1000000000000003,0.9690584806970848,3.671452010201208,1.0191713467553494,2.488444249831565,-1.05953336758426,0.017396415503352358,0.24318483419953563,0.2546093140945737,-0.07014123157842192,0.17051826141845622,-0.5360370216660549,0.0015624384214352545,0.49051904604980284,-0.0012536576273870026,-0.0035899948042076007,0.007790655193261442,1.4049680099326762,1.3812479928815562,1.3869961854955948,1.4185068577399762,3.1651446881946796,2.0773072154925605,1.11
1.1500000000000004,1.100584045949154,3.6122997858153467,1.0207346748101318,2.6305113050413853,-1.183044487717222,0.031266561095648626,0.24852998098336526,0.22461377739117006,-0.07140283489667185,0.14605863865307545,-0.5910580180807404,0.002300009204687038,0.4656036032796833,-0.0012030231734911812,-0.0029985449483525784,0.0079016588658262,1.3966313390837006,1.377516438144671,1.3828196331232283,1.4098361929280843,3.2472594938617805,1.927994834545423,1.115
1.2000000000000004,1.2384409360231319,3.546796516332233,1.0230458126211637,2.7571378014795567,-1.3100653896622738,0.04622275622063743,0.25284016288865274,0.19239747796866236,-0.0722676680346013,0.1304209561703953,-0.6366035339068877,0.002625514090651346,0.43398195069327705,-0.0014591023836734722,-0.0024408135212329045,0.00798514548656774,1.3855750133692137,1.370792097487629,1.3780233892341414,1.4007914506022934,3.3223863305679586,1.7755213482044356,1.12
1.2500000000000004,1.3817797191653503,3.4748081382115963,1.0261235859233893,2.8667756628443675,-1.4397675624127348,0.061555466044511675,0.25559507990226643,0.15836246735166074,-0.07268645652612939,0.10346546567579183,-0.6749776546934428,0.002985404650680567,0.39767938023205807,-0.0013732176586678426,-0.001850782619293336,0.008017270079183368,1.374552315848317,1.3643241615087291,1.3708787392281205,1.389124163646892,3.390407856199909,1.6202114090363229,1.125
1.3000000000000005,1.5297046073039524,3.3962481097668413,1.0299465340726368,2.9584977627720432,-1.5712005688950992,0.07645896298495103,0.25697557174326885,0.12292432056773167,-0.07278745689846033,0.07883943028068267,-0.7048964872072706,0.0032404394121057925,0.359195718370549,-0.0013566117467243247,-0.001278205579863143,0.008018111401315262,1.3627928395620732,1.356969544648399,1.3633959639225435,1.3772373702375333,3.4512217080953147,1.4623937965885379,1.1300000000000001
1.3500000000000005,1.6812777151572567,3.311073102184635,1.0344719297345248,3.031462157066085,-1.7035001516441284,0.09050791323776064,0.25706507733130796,0.0864676170732383,-0.07268539845021307,0.054828215258832184,-0.7270727970652571,0.0032249883261668355,0.31999515055643035,-0.001358790360701895,-0.0007115409348786529,0.008007316616594302,1.3508075376164081,1.3493378041179465,1.3557863793535099,1.365263429468566,3.504740635702635,1.3024007307519594,1.135
1.4000000000000006,1.8355383263681837,3.2192856288606477,1.0396268766728767,3.085212224218541,-1.8357494664797436,0.10309893876703669,0.25589762298185686,0.0494454795737723,-0.07247570096642168,0.030521573944410577,-0.7401803348412381,0.0031730267493149562,0.28221375954380634,-0.0013469130151188013,-0.00021116508120156034,0.007985966597034901,1.3394886869523959,1.3418573234724398,1.34822520952099,1.353842539597981,3.5508926019645606,1.1405671815786407,1.1400000000000001
1.4500000000000006,1.991515717779798,3.1209260072663465,1.0453120161857263,3.1195478282322853,-1.9671924318860246,0.11370279025699315,0.25353791937416087,0.012216719078258059,-0.07226110243670693,0.0068418652170404055,-0.7460364334430204,0.00296452503800216,0.24789011435928343,-0.0013469556411081435,0.0002605456425612675,0.007970493746012034,1.3290972079084356,1.3350866520319131,1.3414626023982004,1.3434436520207351,3.589620853375762,0.9772301769704638,1.145
1.5000000000000007,2.148241382339524,3.0160720755056296,1.0514217186246042,3.134513291194523,-2.097078635214338,0.12219404877755746,0.25007737914555445,-0.024901375291228253,-0.07212846792627936,-0.0154345637528994,-0.7454209878801886,0.002804056432807285,0.2178877622795356,-0.001382579029115593,0.0007109246195460604,0.007962227896508247,1.31972944648552,1.329179211353359,1.335833320705994,1.334345783734663,3.6208839587292276,0.8127281096518575,1.1500000000000001
1.5500000000000007,2.304757525048818,2.904834014213562,1.0578302052010282,3.1303228541858807,-2.224761225841352,0.1281697315284802,0.24546295983122862,-0.061504415419462166,-0.07218054697681152,-0.03915539257670259,-0.736804500515259,0.0022236504085165775,0.19399268122605962,-0.0013580820878700034,0.0010685035482284843,0.007991885811201053,1.3124671771764127,1.3246823781453092,1.3311332205310167,1.326909905373321,3.6446558166288687,0.6474000448340801,1.155
1.6000000000000008,2.4601242937478602,2.7873510647708004,1.0644179806839458,3.107335373980842,-2.349658988855232,0.13175550965835114,0.23973385743266754,-0.09734669345099152,-0.07247815315533897,-0.0620949250819732,-0.7232277868061986,0.0020176957476515274,0.17638509766347787,-0.001336595867650359,0.0014092406158637875,0.008033667850979389,1.3068269479011472,1.3216840942563584,1.3279487670051024,1.3211252885008704,3.6609256319089547,0.48158502997020414,1.1600000000000001
1.6500000000000008,2.6134303416006266,2.6637890191859728,1.0710634582246625,3.066120957055327,-2.471240911696553,0.1329095508143352,0.23298900569910239,-0.13222905001911192,-0.07309908312586294,-0.08290634298691536,-0.7055476634245479,0.0015718566986675547,0.16575528459827865,-0.0013611879362059923,0.0017455787572664236,0.008121504752024418,1.3027593422943622,1.3202476235724236,1.3266575476287654,1.3172907711027282,3.6696978611632183,0.3156214079886776,1.165
1.7000000000000008,2.763787964939087,2.5343386498099933,1.0776586934512227,3.0071524667692096,-2.5890073875195885,0.13190470453120273,0.22458418381831793,-0.16585457486053312,-0.07420155712216242,-0.11629992306141901,-0.6829205981687482,0.0009291500640712548,0.1617917970753392,-0.0009317989971395082,0.0020320244495163884,0.008271349018949709,1.3022807910654208,1.322047422878868,1.3250794329627742,1.3135841501682766,3.670992127648055,0.14984613537940913,1.1700000000000002
1.7500000000000009,2.9103431708760343,2.399222982895124,1.0841001745719998,2.9311041187389453,-2.7023133382973885,0.12882962241554274,0.21566802002671018,-0.19798739959377487,-0.07567872024497918,-0.12678113316770415,-0.6539839975511297,0.0006501993688599452,0.16471259183272274,-0.0011943557403056916,0.002210123731522823,0.008448220718716924,1.3012719409637767,1.3224970031040797,1.3274602445932266,1.3146834031716403,3.6648431058849518,-0.015405893510398769,1.175
1.800000000000001,3.0522768828333304,2.258682798965892,1.0903039499443261,2.838674239145922,-2.810803678584639,0.12407550744652607,0.20566609466906843,-0.22853122997475012,-0.07767769622924889,-0.14815654722483,-0.6240565136188405,5.155501717803623e-05,0.17374244015991797,-0.0010930427154322469,0.002430950437536817,0.008696651348782166,1.3030076273836722,1.3260555718083467,1.3301152670218959,1.3157639739460039,3.6513003763470477,-0.17980251463275002,1.1800000000000002
1.850000000000001,3.1888059852296364,2.1129768323760927,1.096191659710233,2.73058204792612,-2.9141193317959857,0.11775419531813824,0.19456135179135134,-0.2572743484033866,-0.08024282359763618,-0.16958492794875407,-0.5900718689576907,-0.0003798679744228598,0.1889139099224029,-0.0009411602700205441,0.00258674432144402,0.009001618185430087,1.3067092091209178,1.3311080514555103,1.3338469367475685,1.3184497125984065,3.6304282506734107,-0.34301495353178146,1.185
1.900000000000001,3.319188314577172,1.9623841319221698,1.1017090898648345,2.6076465869507093,-3.0118540090784585,0.11034860309202976,0.18258478246588022,-0.2841060231946178,-0.08335293041147425,-0.1862202081350967,-0.5536924439211981,-0.0007236949005238443,0.2090404541978302,-0.0008970798997257068,0.002716804338350557,0.009364018920190642,1.3113195540575782,1.3369000584280624,1.339118663581242,1.3229021781309482,3.6023055679121234,-0.5047184744816766,1.1900000000000002
1.950000000000001,3.4427193418938447,1.8072028765615578,1.1068156644283322,2.470620546333455,-3.10362510721224,0.10213149126995447,0.16994190284903773,-0.3089006030243864,-0.08698063913741085,-0.19879831724968905,-0.5146565100880247,-0.0012261811816269043,0.23349921979604246,-0.0009520204748540824,0.0028029236504521966,0.009790896519548913,1.3167849880294842,1.3432413874465832,1.345669173608763,1.329003670711213,3.5670254623494357,-0.6645930182051937,1.195
2.000000000000001,3.5587381683308728,1.6477455735348558,1.111487496888652,2.320376528740562,-3.1891460605340383,0.09343664920639316,0.15623910323111587,-0.33163210604230164,-0.0912373138031949,-0.21866422971471897,-0.4759645606860766,-0.0014506250140071284,0.2614077492130465,-0.0007293633641897032,0.002930199789416007,0.01027679540335328,1.32400749555394,1.3516858916357397,1.3521579813509068,1.3347563806724603,3.524695103537048,-0.8223238269378212,1.2000000000000002
2.0500000000000007,3.6666275585005295,1.4843421153440488,1.1157118759792422,2.157787803393134,-3.2680691638161408,0.08448758181180516,0.141828463201447,-0.3521682985408419,-0.09603220145184557,-0.23197314374311825,-0.4342997517514668,-0.0017785620114402685,0.2921606549373774,-0.0006640598785898948,0.0029869436217704547,0.010827214703954792,1.3315910389031236,1.3599811356533353,1.3596756812135877,1.342112799167331,3.4754354091828525,-0.9776020556344223,1.205
2.1000000000000005,3.765817918469781,1.3173382319845903,1.119501992834976,1.9838071993850281,-3.3400776671891697,0.07580233711467876,0.12682036299720909,-0.37043077647990474,-0.10130880700420769,-0.243466040193081,-0.3911200222580702,-0.0018023435467345566,0.3241532573644265,-0.0006201326216755605,0.0030056782312664885,0.01141909371299264,1.339538114555389,1.3683682631908585,1.367428967270328,1.3500179123478515,3.4193807316221005,-1.1301253681492607,1.21
2.1500000000000004,3.85578514122669,1.147095325844386,1.1228727472599211,1.799344455138181,-3.4048581228040886,0.0674150884989011,0.11130284022104645,-0.3864431544686768,-0.10704001756114422,-0.25355498189874554,-0.3484844883364768,-0.00216292244991844,0.3572163739355558,-0.0005869318914188865,0.0030463575236422476,0.012075707465653222,1.347610976559548,1.3770823497050075,1.3755593566754032,1.3581636909955972,3.35667851863594,-1.2795985172565887,1.215
2.2,3.936060833388266,0.9739826437168437,1.1258572360721029,1.6055138432315186,-3.4622536425508432,0.05968977624363436,0.09509821845322651,-0.40012015804057655,-0.11324345336326348,-0.26749107905384667,-0.3047725151225685,-0.0019024408341850197,0.390112203415952,-0.00038832465505281,0.0030464461960824476,0.012759708850827148,1.3564274665215303,1.3862415224552702,1.3828487807610323,1.3657944336781194,3.2874889494323796,-1.425733907417384,1.22
2.25,4.006226690792559,0.7983850118467798,1.1285005961013872,1.403317148085863,-3.511952637401279,0.052867200585686724,0.0787160448022522,-0.41148843702185456,-0.11973678387268215,-0.27258837180105694,-0.2607959305461923,-0.002299542144855332,0.4219140529640574,-0.0004388413619256072,0.0030267853822790185,0.013503168163907476,1.3640733875684812,1.3941079361295046,1.3907320548315938,1.3742006744344781,3.211984546651007,-1.5682521392381894,1.225
2.3,4.065919528075612,0.620696074703745,1.1308526075843552,1.193856745661055,-3.553778742860696,0.04704022965936083,0.06202660453315025,-0.4205669371964074,-0.12649885453706872,-0.2807219475657571,-0.2176766837003904,-0.0018709826342975732,0.45211469369142737,-0.00037034072458451086,0.0030144811850108338,0.014242828853997403,1.3717494204032217,1.402059151637996,1.3977865120154938,1.3817196096347166,3.1303497652970504,-1.706882534610406,1.23
2.3499999999999996,4.114834992060858,0.4413147133461527,1.1329758063207116,0.9783092797049164,-3.587627227151846,0.04246397472712715,0.0451541278234543,-0.42731153966983604,-0.13346680298258762,-0.2875080124908024,-0.17360802520606045,-0.0017920474486871538,0.4796632172636523,-0.00031899670373284575,0.002942505704223174,0.015019897020697375,1.3789165900301388,1.4090611978037426,1.4040050700913387,1.3888803593384322,3.042780559552619,-1.8413636415625296,1.2349999999999999
2.3999999999999995,4.1527256582991825,0.2606474122574197,1.1349369897074182,0.7578133247664987,-3.6133460217746594,0.03922366773413177,0.028248031269522987,-0.4318180325030646,-0.1405409361478985,-0.29221886059844926,-0.13125716647175914,-0.0016190612888551245,0.503995345015778,-0.0003144157720622161,0.002888810094153315,0.015804995507979543,1.3850274878915056,1.4151516017543668,1.409667686862394,1.3953485685075122,2.9494839284530068,-1.9714437179037787,1.24
2.4499999999999993,4.179407159688549,0.07910401181758786,1.136803348572245,0.5336300277873285,-3.630868008796637,0.037327177296537783,0.01122326807737883,-0.4340953871349161,-0.14770593125724782,-0.29933390526258435,-0.08945822488680659,-0.0011094175616467965,0.5247754262968358,-0.00021172256343372385,0.0028074962997592977,0.016586449323598606,1.3907348640002593,1.4206242140448226,1.4139596244863595,1.400656723765395,2.850677441453878,-2.0968811927850997,1.2449999999999999
2.499999999999999,4.194753068162171,-0.10290181293580926,1.1386498134070824,0.3069181694724499,-3.640116495067942,0.03692929669674605,-0.005550932527177822,-0.43422954485694437,-0.15479115745228514,-0.30048046054335736,-0.048504675325863805,-0.0009445838108514615,0.5411931077960215,-0.0002872741670899911,0.0027037618546990735,0.017373124726782218,1.3947510110681214,1.424235741544582,1.4177589804664987,1.4056473747168199,2.7465887449507402,-2.2174451053526436,1.25
2.549999999999999,4.19869810012375,-0.28495632628901935,1.1405458457305704,0.07890063923158053,-3.641090267064202,0.03792064646976012,-0.022569817455977255,-0.4322551990941991,-0.16196194200134592,-0.3112906765369731,-0.009726769741089696,-0.000592538365245857,0.5532512321057665,-2.935941546878115e-05,0.0026068825460537296,0.018161696326443374,1.398932991785129,1.4280667826103026,1.4192117761045329,1.408239681605803,2.637455050845415,-2.3329155197193283,1.255
2.5999999999999988,4.191244508480113,-0.4666425418361338,1.1425633850798471,-0.1490718328727425,-3.6337243109422888,0.040350786985534626,-0.03892833962991585,-0.42828527944011757,-0.16880581760408264,-0.30636325273365306,0.029362150066926718,-0.0001816719574359613,0.5604665931379266,-0.0002665428993578096,0.0024379859234063142,0.018911244281647997,1.4002868032803613,1.4284961632935418,1.4210908711477779,1.4117927554162457,2.5235226082851474,-2.4430839155319224,1.2599999999999998
2.6499999999999986,4.172445138454478,-0.6475480028297195,1.144769272713342,-0.3759874005127095,-3.6181092198717133,0.04411775266989881,-0.05526333855682714,-0.4224118758654739,-0.17555139383622212,-0.3133151777433919,0.06474080146813474,0.0004075933770050844,0.5628314145703821,-0.00012122745866649473,0.0023128358326163756,0.01964246081941426,1.4017354565481928,1.4293477318241796,1.4204590203272918,1.4124892058707188,2.405046159728422,-2.5477535534641618,1.265
2.6999999999999984,4.142414498284716,-0.8272650224022849,1.1472223803150619,-0.6006128033952329,-3.5943403914513095,0.0490621520343959,-0.07115930856423139,-0.4148047390090925,-0.1819989373490514,-0.3128968621735067,0.09805581748782241,0.0010502279066027342,0.5605460257903135,-0.00019693415310733704,0.0021830024519261136,0.02033811122497286,1.4011983763142835,1.4281597584800478,1.419505580968387,1.4128823100275956,2.282288382517606,-2.646739815020514,1.2699999999999998
2.7499999999999982,4.10132480448631,-1.0053900612688358,1.1499767941401382,-0.8217938759681154,-3.562500777331017,0.055088276501527034,-0.0868077924717571,-0.4054837374075276,-0.18822170960633275,-0.3164266080430904,0.13039676270005596,0.0013736348189625938,0.553642770719478,-0.00013815374430210342,0.0020029706827570056,0.02102169491062007,1.4002201750019871,1.4261384892477356,1.4166903629024419,1.4117937435673134,2.155519317161972,-2.7398705160903285,1.275
2.799999999999998,4.049398884000968,-1.1815269219297746,1.153076930040794,-1.0385184097068567,-3.522737213218776,0.06200271801311441,-0.10225491811368462,-0.39452313569821496,-0.19419623855382437,-0.3210392412846862,0.16112019214514478,0.0021152987535493105,0.5424902319077142,-2.2359899326762265e-05,0.0017849355511373231,0.021660309408627263,1.398556344276833,1.4231167724514338,1.4124586169727107,1.4095584982067373,2.02501578355559,-2.826986193748096,1.2799999999999998
2.849999999999998,3.9869086564910576,-1.3552827954542435,1.156554531831923,-1.2498045501981991,-3.4751174704893772,0.06955203582258207,-0.11726425947450508,-0.3822120196169003,-0.19982319552221225,-0.3206672243340378,0.18705508206304924,0.0026386137385280848,0.5276948913121782,-4.650755165062848e-05,0.00163551962846182,0.02226896420276161,1.3951871464692296,1.4189025487895472,1.408125817085479,1.4066793789679228,1.89106078637292,-2.9079403658522223,1.2849999999999997
2.8999999999999977,3.914172886621003,-1.526271604740077,1.1604364453823865,-1.4547153974010918,-3.419776185716672,0.07763827100927045,-0.13187807150197184,-0.3686340916388156,-0.20509636973664985,-0.32099248548284465,0.2113062460975847,0.003404186112003873,0.5094220454592263,-3.5729806875257665e-05,0.0014570372714728412,0.022828055764368724,1.391207085583914,1.413829092477428,1.402689909263515,1.4028959581343698,1.7539429109006412,-2.982599763052098,1.2899999999999998
2.9499999999999975,3.831546148959572,-1.6941181902023028,1.1647347194271311,-1.6525347532286183,-3.356931709244515,0.08596548089489175,-0.146181941315745,-0.35387653155186044,-0.21004934418365379,-0.3227217163912324,0.2336320786380837,0.003943500126288638,0.48849642065719634,4.084596822213435e-05,0.001253746405622384,0.02336057759347465,1.386918959083622,1.4082434510005313,1.3962489624482393,1.3982850481248046,1.6139557105773716,-3.050844532871061,1.2949999999999997
2.9999999999999973,3.739422866250343,-1.8584560458985988,1.1694470652956082,-1.8424656541845863,-3.28675711392592,0.09424691736954038,-0.1599814043725576,-0.33820094820396546,-0.21460661982885304,-0.3199010405494993,0.2517216587574325,0.004480286191658512,0.4657820393549915,-7.798369306255999e-06,0.0011054430312465206,0.023848890707910114,1.3815015894673366,1.4019294427539573,1.3900649848562041,1.3934860222774936,1.4713970875233813,-3.1125684155910855,1.2999999999999998
3.049999999999997,3.6382222394502572,-2.0189291661792765,1.174566738527818,-2.0240125360017114,-3.2094624056135546,0.10239346464419707,-0.17344902096522638,-0.32158991689227334,-0.21881162828178324,-0.3203427728482485,0.2696152331047272,0.005318431258792412,0.4415741033433724,6.729466347641469e-05,0.0008826993185357472,0.024285384173667688,1.376486008042198,1.3954186948869993,1.3827583515426545,1.388111048871521,1.3265686673501949,-3.167678891723524,1.3049999999999997
3.099999999999997,3.528391794912496,-2.1751929717687206,1.18007656858567,-2.1966088907552273,-3.1252761117888816,0.11019660115703989,-0.1868593135005893,-0.30423504717104455,-0.22276035937980015,-0.3250496225846166,0.2827402079862069,0.005889383783746356,0.41657263270367856,0.0003234029462984695,0.0007282404559519794,0.024704146642792996,1.3717100541704004,1.3896639771529657,1.3748241888600425,1.38157441252027,1.179775169545173,-3.2160973009088654,1.3099999999999996
3.149999999999997,3.410401208888787,-2.3269065458863976,1.185945975095875,-2.3598117204741786,-3.034271482353539,0.1173881302040991,-0.1995540759135987,-0.28640174292996456,-0.2262628325733371,-0.3162653509753617,0.29358882446450074,0.006170581135108798,0.3917182249957083,0.00017975553919781376,0.0005847141485095191,0.02508482926992328,1.365400815818709,1.3824410315960518,1.3685158820441836,1.3765604955367643,1.0313237747286088,-3.2577589321471354,1.3149999999999997
3.1999999999999966,3.2847273612127212,-2.4737411122969633,1.1921365264645178,-2.513476953521314,-2.936691328211314,0.12381102737285765,-0.21176530745936523,-0.2680994658383073,-0.22937791514208727,-0.31156213208325945,0.3034814202765037,0.006913124281964648,0.36765654755502375,0.0001786053170459251,0.0004098771005579205,0.025403191436428902,1.3599738321699872,1.3758283286617243,1.3617528458893102,1.3713015408340024,0.8815234900807947,-3.292613085319141,1.3199999999999996
3.2499999999999964,3.1518687530251617,-2.6153855869978915,1.1986087379629855,-2.6571721637511914,-2.8328894940185645,0.12944422996935323,-0.22361347233023485,-0.24949529688555422,-0.23214185791070258,-0.3081702481327695,0.3097690536190114,0.0077542793635794055,0.3446327568512525,0.00024976714192113925,0.0002885588572461209,0.025678183026684138,1.3548894445510462,1.3699482195816661,1.355187842361238,1.3658072503573027,0.7306845142337222,-3.320623104017104,1.3249999999999997
3.2999999999999963,3.012318824357792,-2.7515362416316154,1.2053173942121074,-2.7909985733473963,-2.7230130926744778,0.1341731249824374,-0.23510751160753335,-0.2306529373037041,-0.23459674964034266,-0.30445478508012336,0.3149356443227179,0.007962162550542915,0.3231979857617727,0.0003493862105978652,0.0001525925017334951,0.025944561393002743,1.3503702549724401,1.3645163241438147,1.348856457211945,1.3606549494335736,0.5791176029167033,-3.3417663797612835,1.3299999999999996
3.349999999999996,2.866579662448325,-2.8819017351028218,1.212214584096129,-2.91478323818934,-2.607309869424128,0.13794379768043097,-0.2462862547096621,-0.21171292043400033,-0.23674728326258448,-0.3006225667264772,0.3173352045411084,0.008425783617670202,0.3037350719036518,0.0004892295756847932,5.846304655989813e-05,0.02616635798772413,1.3463489728217701,1.3598818675584003,1.343035384136194,1.3556688473872875,0.4271334366372721,-3.356034327736741,1.3349999999999995
3.399999999999996,2.7151548104189276,-3.0061988415846446,1.2192485385350142,-3.028497040587945,-2.485942129636456,0.14067908877770652,-0.25687613324045977,-0.19283204312335112,-0.23854584285422203,-0.2906244486443415,0.318097274678259,0.008891631009269629,0.28671440799339865,0.00046868810524560816,-1.56635640019102e-05,0.026348647239476615,1.342254331224048,1.3553081658899255,1.3385285491529133,1.3518233617265125,0.2750419916681643,-3.3634323342414616,1.3399999999999996
3.4499999999999957,2.558542003767325,-3.124154854944586,1.2263678871858987,-3.1322561330320475,-2.359120267198831,0.14238697301768966,-0.267021794571279,-0.17398705954219,-0.24004577307299846,-0.283239025134966,0.31880823793124624,0.009268825693031413,0.27235081154178403,0.0005630270234020202,-0.00011970978627405806,0.026501133579389897,1.3393883302970453,1.3517180525769397,1.3341365086841521,1.3483079199836476,0.12315191559818538,-3.363979676093377,1.3449999999999995
3.4999999999999956,2.3972358183950373,-3.235511397220264,1.2335287562997492,-3.2261237074457583,-2.2271308455135586,0.14321738227700997,-0.27678508646990163,-0.15531083217861344,-0.24125911074879422,-0.27618496712609486,0.31678394241354724,0.009927493141577495,0.2604009418957759,0.0007122213512141359,-0.00016389681084671748,0.02660997120764915,1.3371174279107276,1.349161668815731,1.3303780574333361,1.3449437877359818,-0.028230091310771952,-3.3577094122994033,1.3499999999999996
3.5499999999999954,2.2317247202673554,-3.3400179817096967,1.2406823378620302,-3.310221962553639,-2.0901316897886524,0.14307163124561928,-0.2859697610698996,-0.13686238926288846,-0.24220521895609703,-0.26486357380531045,0.31467185043503254,0.009902670634455227,0.2513863513336498,0.0007658104924058802,-0.00022181287259649918,0.026716940481917813,1.3352659041167885,1.3469181214916202,1.3276688013090776,1.3427335244161636,-0.17879988773625416,-3.3446682483443206,1.3549999999999995
3.599999999999995,2.0624887883686993,-3.4374385725041474,1.2477865871276328,-3.384718637973121,-1.9484118158890151,0.14208498531205205,-0.29432115968868844,-0.11874149161218721,-0.24283579284238135,-0.24794188170382245,0.31196303787599805,0.010611735863985845,0.24509939669012146,0.0006622237765040276,-0.00026942580368348066,0.02675844823320858,1.333468504730334,1.3447752226647578,1.3263019694981224,1.3417536997969075,-0.32825649467333373,-3.3249163735109604,1.3599999999999994
3.649999999999995,1.889998032987999,-3.527547422241573,1.254804628413481,-3.449815107614005,-1.8021769947485122,0.1403608257169653,-0.30220370732410407,-0.10091982842919274,-0.24325177570600387,-0.23796358967448428,0.30818343344503096,0.010794704217284741,0.2414036852269036,0.0008084110230711137,-0.00029516536544972973,0.026797521340062833,1.3331960655429442,1.344324323401824,1.3247070164004764,1.3403762798816594,-0.47630268939700876,-3.298527271695786,1.3649999999999995
3.699999999999995,1.714714856870919,-3.6101415959748495,1.2617091987501268,-3.505663522341602,-1.6518834746655298,0.1380914067329142,-0.3094570529156062,-0.08348580437980256,-0.24346197764814215,-0.22430123000113344,0.30353972626027165,0.010855319687002455,0.23985309981403607,0.0008746115445252464,-0.00029745952319701487,0.026818572606989263,1.3330665974468476,1.3441877335719035,1.3240506661566762,1.3397481026386093,-0.6226455888525831,-3.265587506235302,1.3699999999999994
3.7499999999999947,1.5370896943016974,-3.6850260595959945,1.2684732284737195,-3.5525032513844312,-1.4976892724228996,0.1352805944718538,-0.3160794302567217,-0.06643776824864824,-0.2434686241263012,-0.21046500814635924,0.29900757009076756,0.011359985270448842,0.24056276942985483,0.0009676408746236853,-0.0003044870495606608,0.026798600259196646,1.3336338420010658,1.3446909340571207,1.3238482425842635,1.339589750787405,-0.7669972213449089,-3.2261964793088396,1.3749999999999996
3.7999999999999945,1.3575642066901707,-3.752021259501252,1.2750729277071378,-3.590509752230533,-1.339903998105152,0.13199398466836598,-0.32196332413696693,-0.04979407897257964,-0.24330881400217355,-0.19432599290312752,0.29469669282370237,0.011463286148923725,0.24344852526976365,0.0010156503318396576,-0.00031801923874420475,0.02677646333039887,1.3345975138332409,1.3455394436619463,1.3243385171364417,1.340173050638135,-0.9090750854267075,-3.1804661665319007,1.3799999999999994
3.8499999999999943,1.176568503614362,-3.8109644222374266,1.281500472341561,-3.619914061516174,-1.17886325472349,0.12855089268846598,-0.3270556563293019,-0.03363649118337431,-0.24301000013168159,-0.17665698518239142,0.28909516247940853,0.011500552398960515,0.2475950353442442,0.0010370007560988527,-0.00028521847231316157,0.026741470750841306,1.3355988497191662,1.3467755968460242,1.3254279325775356,1.3409926562015189,-1.048602694917578,-3.128520827401506,1.3849999999999993
3.899999999999994,0.9945223775126879,-3.8617109009369583,1.287742771930481,-3.640922522033483,-1.014929573990635,0.1248459917783995,-0.3311818091716375,-0.01791493431272296,-0.24258895340736744,-0.15575830039415872,0.2853302103687521,0.011658946471757093,0.2533783547604719,0.000965216331899088,-0.0003028485520509011,0.026687817547241803,1.3368498069338846,1.34786411146096,1.327095461672731,1.342768974692897,-1.1853101090187725,-3.070496692300538,1.3899999999999995
3.949999999999994,0.8118340263207728,-3.9041369114162596,1.2937992159863778,-3.6537670238383013,-0.8485202095860256,0.12112888111793563,-0.3347803731977019,-0.00253284223125936,-0.24207972513624307,-0.14377619914212006,0.2813405275701182,0.011931674315206881,0.2600576350727716,0.001198599680393601,-0.00031851803536287143,0.02661959586639868,1.3394945779391183,1.3503542371387571,1.3278244416640683,1.3435843783308286,-1.3189344465241275,-3.0065416268121052,1.3949999999999994
3.999999999999994,0.6289029817935089,-3.938138166445656,1.2996756681583026,-3.658620890545279,-0.6800251005879243,0.11752904343849568,-0.3372346815812285,0.01228772602387992,-0.24151513057332305,-0.11871700000269947,0.27600039201161575,0.01187163445197611,0.2672202114284693,0.0010298139548195302,-0.0002786837128230226,0.0265588341721326,1.340498027651171,1.3516337238693679,1.3304326609769974,1.3458557989309334,-1.4492203831647714,-2.936814774137108,1.3999999999999995
4.049999999999994,0.44611763503372237,-3.963630792582938,1.3053737058100239,-3.6557069351957305,-0.5098525227456463,0.11396075303442554,-0.3389918748754553,0.026703991331340604,-0.24092390536594868,-0.10307928445308528,0.27155367194902896,0.011839170987392098,0.2751153779375243,0.0011632547513475858,-0.00026388422731859595,0.02649395821606769,1.3429443510021573,1.3541614514385096,1.3319663588585713,1.3472432166382866,-1.575920631164194,-2.8614861764486377,1.4049999999999994
4.099999999999993,0.2638552441604399,-3.9805534193206222,1.3109094678849196,-3.64524781746565,-0.33845253475368153,0.11071524149791401,-0.33987352030129564,0.040694744599388294,-0.2403157971893336,-0.0838789365096073,0.267529018737501,0.01212905397556202,0.282800030049692,0.001197011995523727,-0.00025792653532938906,0.026413959206445806,1.34499243513717,1.3562153644686281,1.3338006002844536,1.3489916301594411,-1.6987964001208895,-2.7807363760553474,1.4099999999999993
4.149999999999993,0.08248332676711902,-3.9888659430798645,1.3162971805355952,-3.627438347866417,-0.16625047518484593,0.10775425301351227,-0.3397542122927418,0.054231559048676145,-0.23974728695222206,-0.062127115674468984,0.2635227957819587,0.011892723531618785,0.29032283815446247,0.0011472956331621206,-0.00024642143843141924,0.02635999578902781,1.3466511608667189,1.357935609234837,1.335930260315999,1.3510058077369085,-1.817617838378044,-2.694755997282437,1.4149999999999994
4.199999999999993,-0.09764125545873367,-3.9885536063978244,1.3215522982619539,-3.602491644517054,0.006246733640802304,0.10510235452717342,-0.3387725109512111,0.06737992770946913,-0.2392129533576887,-0.043416339808622084,0.2600981217678782,0.012162140618679217,0.2975392632293744,0.0011886127617285105,-0.00025203291593614785,0.02628909858599062,1.348653486074941,1.3598593206299656,1.3375715962467514,1.352654860277717,-1.9321644540834397,-2.603745310013512,1.4199999999999993
4.249999999999993,-0.2761721016473586,-3.979624704318655,1.3266966166649594,-3.5706169237724987,0.17857804158339263,0.10288636806011109,-0.33688535816460274,0.08011101981142013,-0.23876083439710702,-0.02377981130570906,0.2562881573668447,0.011975657936531596,0.3039700978821937,0.0011968817648531612,-0.00024358796840618502,0.026246123028084135,1.3502712619183712,1.3615205698292887,1.3391907255086837,1.3541875406258503,-2.042225515187869,-2.507913775868941,1.4249999999999994
4.299999999999993,-0.4527716579299813,-3.9621111755686615,1.3317565444041497,-3.531991125652454,0.3502705749998647,0.10119855478380568,-0.3338440413200665,0.09234377554624727,-0.23843253656754032,0.0009880415204014225,0.2520466317136039,0.011798232400942823,0.30921764119605955,0.0010213491025363155,-0.00021277436180471552,0.02621664183049138,1.350796878550396,1.3622684736056054,1.3413036211323879,1.3560486679076702,-2.14760042767678,-2.4074795780266935,1.4299999999999993
4.3499999999999925,-0.6271154685339752,-3.9360772519431535,1.3367483410015066,-3.486876212079877,0.520678472510161,0.09983593194713869,-0.3299568973582746,0.10420203812875466,-0.23822012642391252,0.019119418107215423,0.24873183164838356,0.011757182059568681,0.313812125082358,0.0010315619657650986,-0.00021055819718937652,0.02619454012352617,1.351981781481841,1.3634593731036855,1.3424270109975756,1.3571439594992567,-2.2480990913774614,-2.3026691357197606,1.4349999999999992
4.399999999999992,-0.7988899367264967,-3.9016078043936084,1.3417000864141055,-3.4354893638504302,0.6893889509909013,0.09903490825197814,-0.325309106932431,0.1157419724452611,-0.2381403653524064,0.03526228040446626,0.24609199952811825,0.011580406644881108,0.31691782099950905,0.001095127843981244,-0.0002348122258057179,0.02619286472596428,1.3530963931829516,1.3643865776551205,1.342866084953821,1.3577687652076167,-2.3435422327328346,-2.19371660447011,1.4399999999999993
4.449999999999992,-0.9677912949222128,-3.858813207937511,1.346634101638203,-3.3780271639143233,0.8558919291219524,0.09868030448195064,-0.3198616363624284,0.12692103560219353,-0.2381986654463479,0.05227762930201892,0.24279976418126462,0.011703493540120031,0.31877456326988624,0.00111900328201301,-0.00024283928890523536,0.02619434073540956,1.3536829116756124,1.364912087513277,1.343207199591626,1.3581723644893713,-2.4337617139825443,-2.0808633631427744,1.4449999999999992
4.499999999999992,-1.133524497238778,-3.8078264727678643,1.3515695421638483,-3.3146640463313015,1.0197347033929294,0.09870881051290414,-0.31355361743885674,0.1376941022990165,-0.23843561663684967,0.0705927530836877,0.23891372419448972,0.011482942916889803,0.31948208127485367,0.0010805146240545546,-0.00023301757669494337,0.026229929470371446,1.3536650848770801,1.3649876067146127,1.343560991025161,1.358468398658,-2.518600818242711,-1.9643574889249484,1.4499999999999993
4.549999999999992,-1.295804422820632,-3.7488014285585796,1.3565301932200986,-3.2455985116370822,1.1805008841856957,0.0992130211250064,-0.3060236609851221,0.1480157299002185,-0.2389109766747288,0.09597090294109893,0.23584866449267414,0.011368037732278704,0.3186533381320132,0.0007717766391042296,-0.00024341218759500583,0.026287879741569663,1.3522959370079928,1.363567475435739,1.3444867921872294,1.3595031335010526,-2.5979145100269854,-1.8444532213539344,1.4549999999999992
4.599999999999992,-1.4543605675959035,-3.681922966519096,1.3615296206186236,-3.1711228955054294,1.337569240789671,0.09998854797049983,-0.2979085305457598,0.15798641689714452,-0.23956819617942723,0.10852271295827326,0.23177410967098755,0.010962923876622977,0.3168347587760888,0.0008314657567956462,-0.00022849620568234156,0.026378108760520557,1.3519909392826537,1.3634223305422806,1.3438373857251307,1.3587841032260246,-2.6715696708036485,-1.721410416534334,1.459999999999999
4.6499999999999915,-1.6089339129212248,-3.6073953779426384,1.3665881795773094,-3.091466906506426,1.4905517715291516,0.10117117917371576,-0.2890703153297033,0.1676401287020456,-0.24040285005460457,0.1234741358381898,0.22903460959365377,0.011253026044504021,0.3135262403274438,0.0007930291421234606,-0.0002607398597254886,0.026459669035507827,1.351119600522403,1.3623437438114996,1.343013685123565,1.3582492108699764,-2.739445309236048,-1.5954939926990879,1.4649999999999992
4.699999999999991,-1.759273283267703,-3.5254455418902135,1.3717188711750297,-3.006787406929563,1.638996721048498,0.10261383195440565,-0.2796648782327002,0.17693486378179565,-0.241442734365846,0.135559398617837,0.2247796851769166,0.01068979727533664,0.3091057115207969,0.0008207362583698343,-0.000253418219714449,0.02659924158417361,1.350057980861403,1.3614082307326096,1.3417952541069085,1.357044245819876,-2.801432745806732,-1.4669733682807526,1.469999999999999
4.749999999999991,-1.9051383972590659,-3.436314874625555,1.3769301203917348,-2.9173022798272585,1.7826133452931714,0.10422498433410254,-0.26963774001563745,0.18590489950450495,-0.24268198214150247,0.1484414453450564,0.22149161006899853,0.010576921966694913,0.303806600219664,0.0007979805010145791,-0.00028340601630427866,0.026742652800451364,1.348725165767568,1.3599164458885302,1.3404068079420384,1.3559581806215277,-2.8574357715790266,-1.3361218936687262,1.4749999999999992
4.799999999999991,-2.046301995784581,-3.3402610783802262,1.3822301472255383,-2.823271970510306,1.9210759249065745,0.10600053667606968,-0.25891450166548846,0.19449876596632526,-0.24413982899273795,0.16290961315928315,0.21761009700020958,0.010503614004395473,0.29760244371606737,0.0006903100856522175,-0.00029964861295062967,0.02690891967103964,1.3467809144674219,1.3579303849725524,1.3391658475550925,1.3549252967210015,-2.907370780903412,-1.2032162778350979,1.479999999999999
4.849999999999991,-2.182543988666823,-3.2375593014380724,1.387621345651423,-2.7248398576448363,2.0540355388430775,0.10782396851769516,-0.2475108654147567,0.2026863177050642,-0.2458327807687316,0.17714544262230464,0.2131366662156885,0.010194297092530176,0.29082925702006185,0.0005479993750607362,-0.0003010438644086917,0.027111203090189856,1.3444950644035043,1.3557349439146862,1.337963962561432,1.3538352861404397,-2.9511668779298152,-1.068536011016267,1.484999999999999
4.899999999999991,-2.3136581344479032,-3.128501076565571,1.3931053147480121,-2.6222829156216054,2.1811644974500233,0.10967938193178206,-0.23563197002060884,0.21052415594925988,-0.24771973097026087,0.1871389146596803,0.20885562113203876,0.0100211586499834,0.28352656308385127,0.0005037121761498751,-0.0003156402474469164,0.027329621337806472,1.342500590911884,1.353737399677349,1.3361978799611391,1.35229069253348,-2.9887659568406857,-0.9323627846395655,1.489999999999999
4.94999999999999,-2.4394467421310173,-3.013392095521609,1.398681424452118,-2.5157721536622812,2.3021796208792455,0.1115221940821165,-0.22338147239095654,0.2180582189623219,-0.2497752605356533,0.19489257893409287,0.2050314934357039,0.009993968430224239,0.27582983504397696,0.0005036410187581623,-0.00035683369767299287,0.02756092679918604,1.3406767452013175,1.351712334003426,1.3340577089210781,1.3505830469181557,-3.02012275577338,-0.7949799096837386,1.494999999999999
4.99999999999999,-2.559726382304692,-2.892547916358008,1.4043492845630283,-2.405592803473491,2.416883583272016,0.11335720221820722,-0.21066747242995498,0.225170131427221,-0.2520382357485764,0.20493337738508502,0.1994229052774143,0.009611753439028724,0.2677261183937768,0.00040235208340998164,-0.00034699086151004265,0.027830037005080934,1.3381561085968667,1.3494019666262527,1.3323919320974817,1.3489761110731764,-3.045204884453836,-0.6566717346594435,1.4999999999999991
5.04999999999999,-2.6743186654894044,-2.7662928213146256,1.4100979939361646,-2.291845663694252,2.52510190086765,0.11497418746272636,-0.19760936994727857,0.23192109646922207,-0.25447631190290165,0.2123836667552745,0.19449704987094169,0.009376080209080598,0.259892870695882,0.00035180329884782055,-0.0003670933290164779,0.028112740381280883,1.3360100196088978,1.3472425949609501,1.3304800455484032,1.3473602105776317,-3.0639928256166944,-0.5177230643906865,1.504999999999999
5.09999999999999,-2.783058304827329,-2.6349619330303993,1.4159225502310495,-2.174792786758495,2.626617765684527,0.1164911258976975,-0.18434880373599472,0.23834372842746954,-0.2570453859857036,0.21698584143814548,0.18957256793274357,0.009378059383123707,0.2520010365420967,0.00036881041991618636,-0.00040007572283454646,0.02840035791825559,1.3341574240511556,1.3452800974500174,1.328242915260765,1.3455205997801587,-3.0764799103396983,-0.37841858077069457,1.509999999999999
5.14999999999999,-2.885789866186125,-2.498892406916041,1.4218117047555954,-2.054631227175916,2.721390522287166,0.11778309049091717,-0.17065415828190034,0.24436545426401757,-0.25981248488974945,0.22630454296400096,0.1844545262847572,0.009081075378991825,0.24447532448007145,0.00020710814507581606,-0.0004344410942815679,0.028722423861469157,1.3317057222291022,1.34272507958844,1.3267707280801995,1.3444737945823304,-3.08267226747247,-0.23904226665581557,1.514999999999999
5.1999999999999895,-2.982366118585996,-2.3584307456769213,1.427756518949567,-1.93152504799742,2.8092332247823926,0.11889628387943052,-0.15689382351696912,0.24998886276022145,-0.2626789726578661,0.2287016140849138,0.1776248024909674,0.00899015668815176,0.2372192145682439,0.00024061296283186168,-0.0004272053702043799,0.029047160870278605,1.3299115454746309,1.3411489307543518,1.324774481374352,1.3425842569649094,-3.0825887473913043,-0.0998768340488936,1.5199999999999991
5.249999999999989,-3.072652204522457,-2.213926410405574,1.4337422335927783,-1.8057217187292185,2.890086705426951,0.11971429286422808,-0.14302548968159143,0.25525079533087097,-0.2656571999590151,0.23173280416506148,0.17176258655652604,0.008767083814902179,0.23064846999428212,0.00024032088083515802,-0.0004611604108443031,0.029389836039422693,1.3283126634567128,1.3394601937006987,1.322916653520717,1.341158959316154,-3.0762608203624917,0.038796842290864955,1.524999999999999
5.299999999999989,-3.156520125096644,-2.065728482518028,1.4397617498106419,-1.6773584114837448,2.963958557750912,0.12039032435727126,-0.1289198762671278,0.26009832912881253,-0.2687733298505319,0.23748362864881079,0.1655927269132762,0.008586968664801287,0.22433889850666672,0.0001314561546700132,-0.000495770455542941,0.02974619085902823,1.3263605869511903,1.3374200634919127,1.321535766872629,1.3402224811909351,-3.063732449846714,0.17670028469118648,1.529999999999999
5.349999999999989,-3.2338530771328076,-1.914190287410907,1.4457958242556206,-1.5466590407232683,3.030763902142426,0.12068148889957442,-0.1148010182154247,0.2645579003006014,-0.27196384416506286,0.23895586590448023,0.15884135826860651,0.008470902372353173,0.21910457158445423,0.00013867015879690455,-0.00052611925363152,0.030108246425194697,1.3251059636453089,1.3361130156761252,1.3199921989343213,1.3390933933286993,-3.0450599411261545,0.31355796476168657,1.5349999999999988
5.399999999999989,-3.3045442867335253,-1.759665203074194,1.4518385203955595,-1.4138241920143546,3.0905016867342594,0.12085392279877816,-0.10064817652522803,0.268591960359263,-0.2752220656755505,0.2410728172889631,0.15151050947674966,0.008489086981445982,0.21417911691520436,0.00011312880446019013,-0.0005498239429541051,0.030472373173440762,1.3237765041947267,1.3347832758356464,1.318676867676155,1.3381424692086765,-3.0203117656840623,0.4490978468599745,1.539999999999999
5.449999999999989,-3.368495389766903,-1.6025060614374813,1.457875354239715,-1.279022060667554,3.1431828327342526,0.12073667688310863,-0.08644566888495496,0.2721532421958145,-0.2785642916711378,0.24380574803162852,0.1433923001370558,0.008149876582280679,0.21013994561640353,5.2664815979169286e-05,-0.0005579127122500406,0.03086057835739991,1.3224682169233248,1.3336068698539476,1.3177714667061773,1.3374933921329544,-2.9895683618134794,0.5830519217714835,1.544999999999999
5.4999999999999885,-3.4256181327035025,-1.4430646529359261,1.4638940550418829,-1.1424548587319894,3.188828170031104,0.12037401604335862,-0.07227485268061029,0.27526086471785505,-0.28194618343201044,0.24500259842480082,0.13525315525145612,0.008143095018188516,0.2069121927485943,2.6848278423828864e-05,-0.0005758271500197822,0.031239579235847966,1.3215361357952775,1.3327264857976646,1.3169001709610957,1.3369494001945565,-2.952921911977629,0.7151567295706461,1.549999999999999
5.549999999999988,-3.4758372784747307,-1.281692522338371,1.4698867872033838,-1.0043829154245643,3.2274426119511013,0.1198546432300196,-0.05806574049355804,0.2779302315353141,-0.28537999247233437,0.24748875148544897,0.1278170778412259,0.008139360107663043,0.20426782489341297,-5.61328215064503e-05,-0.000626468250312112,0.031624269025538616,1.3206544867700674,1.3316476347419741,1.31626729116387,1.3368984122175018,-2.910476097488941,0.8451538706581964,1.5549999999999988
5.599999999999988,-3.5190853080560234,-1.1187397414642997,1.4758466084427846,-0.864960591625854,3.259055617481428,0.11919642478801507,-0.04414309233540793,0.280218009297779,-0.28877555754574896,0.2437461647939787,0.11972665845093287,0.008064552508699096,0.2021860103615777,5.42076736230152e-05,-0.0006767843202160376,0.03200759360213426,1.3206561118584725,1.331453875427109,1.3150330965212491,1.3362429265547473,-2.8623458311168264,0.9727905039982518,1.5599999999999987
5.649999999999988,-3.555305365003537,-0.9545518117113805,1.4817621558740164,-0.7244011389502703,3.2837585950583836,0.11831094862463587,-0.030277591751747,0.28195183682700975,-0.2921969847420045,0.2453121834480089,0.10958207517700116,0.007825853162115814,0.20098359998714302,-4.794409672773626e-06,-0.0006701781428655699,0.032400542158625055,1.3200049326617176,1.3310499872574484,1.314886596252542,1.3362420838154359,-2.8086569682759666,1.097819831609683,1.5649999999999988
5.699999999999988,-3.5844481972720788,-0.7894700172748853,1.4876296806819378,-0.5828566453708373,3.3016358887299035,0.11735049615842819,-0.016728785043143915,0.2832203615773826,-0.2955511522044161,0.24170425217044939,0.09970962481687387,0.00787423145115944,0.20022398321155346,9.939675682391144e-05,-0.0006852793976162971,0.03277417399385971,1.3201804375138089,1.331296144529075,1.314144467095038,1.335802934073632,-2.7495459974870404,1.2200015683988283,1.569999999999999
5.749999999999988,-3.606484669881108,-0.6238294735142351,1.4934442714845702,-0.4407294521805838,3.3128108752130037,0.11629181605264716,-0.003025582319899214,0.2839481612590718,-0.2989576804292269,0.24729714739988184,0.09103404632214801,0.007990449254285544,0.19999964293047726,-0.00010185255187089921,-0.0007400628631817641,0.033150884639811376,1.3194668446161697,1.330349495680831,1.3145575345291634,1.3368257681043132,-2.6851597108403378,1.339102396454855,1.5749999999999988
5.799999999999987,-3.6213866754574875,-0.4579643569887345,1.4991992890755754,-0.298040111527591,3.3173023305100124,0.11510035182010547,0.01042188739765052,0.284113272241665,-0.3023111343008004,0.2456009754329614,0.07965494168355708,0.00780979766932911,0.20044486127047026,-8.591161445559666e-05,-0.000720984264431105,0.03353383830047404,1.3194703428577896,1.3306912292047102,1.3145851686272088,1.336898120580762,-2.6156548552295913,1.4548964029649363,1.5799999999999987
5.849999999999987,-3.6291450096207156,-0.29220640406017423,1.5048957175918627,-0.15516668326456262,3.315159058571205,0.11392857032574533,0.023586914571118885,0.28384580835844875,-0.3055818139353657,0.2427563469726721,0.07059146607124993,0.007929993011051458,0.20110050401746982,-3.3418917088267446e-05,-0.0007862735908343309,0.033895172609019086,1.319996927751136,1.3308962556646122,1.3142057379530896,1.3372015826486323,-2.5411977651584685,1.5671655009437895,1.5849999999999986
5.899999999999987,-3.629762472911758,-0.12688121902699565,1.5105310694326215,-0.012349265820850164,3.306503700663572,0.11270703681517613,0.036480160704690436,0.28299977732117326,-0.30877682483453306,0.24109284322440586,0.05877988050406457,0.00785667343284437,0.20218559349357473,-1.499357229219009e-05,-0.0007728710167390274,0.03425597696302631,1.3201973173805097,1.3313801441947994,1.3143674908847647,1.337440641033501,-2.461963977955516,1.675699832010965,1.5899999999999987
5.949999999999987,-3.6232492037930575,0.037693135459490434,1.5161088388659731,0.13026538237401297,3.2914870897297215,0.11155538866703285,0.04925904519478518,0.28155442875580033,-0.31193104090437834,0.24255467768950226,0.047485687328422434,0.007818106787065971,0.20332724915729028,-0.00010320862490853306,-0.0007765799804883475,0.034610786274742206,1.3200690055497903,1.3314007065295586,1.314889225891484,1.3381683111864577,-2.3781378322647906,1.7802981504894653,1.5949999999999989
5.999999999999987,-3.609634111051763,0.20120159706194907,1.5216314464542475,0.2723018548258871,3.270169232049173,0.11045215176548773,0.061800945559921626,0.2796112675830748,-0.3149901594135199,0.24125985268619393,0.03740182215451545,0.008053906723357401,0.2045785463182187,-0.0001150844407493681,-0.000825001295557669,0.034943683227218976,1.3204391652143204,1.331564843015948,1.3149782663311798,1.3387962717567712,-2.2899120507090083,1.8807681881407121,1.5999999999999988
6.0499999999999865,-3.58895842392459,0.36333400174486696,1.5270937319273754,0.4135137425434632,3.242648093658358,0.10924570946255763,0.07399664012832384,0.2771254365337898,-0.317933720660392,0.2383452826450669,0.025786203447933413,0.008000352222381981,0.20641610960881765,-7.555376978950302e-05,-0.0008325629910210672,0.0352755175302686,1.3209967219474512,1.3322301500124234,1.3151735740918236,1.3392156635571202,-2.19748730764958,1.9769269988935767,1.6049999999999986
6.099999999999986,-3.561274770308831,0.5237867250972669,1.5325101376091668,0.5536730723151795,3.209054467047998,0.10832811363582717,0.0858650134881542,0.2740642527799395,-0.32075195306666315,0.23607979904771142,0.013628293215880567,0.008147983109933657,0.20760337437426019,-5.4487520498887686e-05,-0.0008251121180128375,0.035585058119619636,1.3212685198233294,1.3327140325907327,1.3153406383039912,1.3394801836562074,-2.1010717829935244,2.0686012829688614,1.6099999999999985
6.149999999999986,-3.5266480528321917,0.6822635795282099,1.5378762780495374,0.6925343495327851,3.169537088618861,0.10732280880741296,0.09745699757026365,0.27043254632644825,-0.32345952610848555,0.23480937729917578,0.001839355712543584,0.008179649780260524,0.20928435986396832,-6.780485691216307e-05,-0.0008292821619231612,0.03588696683797523,1.3215781071219252,1.3331424969876577,1.3157205893910713,1.3400431663633143,-2.000880703020771,2.155627689845392,1.6149999999999987
6.199999999999986,-3.4851606496636602,0.8384749882731343,1.5432035095577794,0.82974806337063,3.124228174898487,0.10654463016483984,0.10880682946309868,0.26626234185965525,-0.32605199817184255,0.2340458179928036,-0.00915730119539181,0.008390394176668408,0.2104671835429841,-0.00010559244115270925,-0.0008580427414142305,0.03616863473925746,1.3217686768173222,1.3332526654068415,1.3159805975845411,1.3406652437342794,-1.8971358692267821,2.2378530995594743,1.6199999999999988
6.249999999999986,-3.436908320126094,0.9921373782616065,1.5484929766391238,0.9650465907513261,3.073247799769445,0.10578934162688736,0.11976524078452717,0.26151203814195745,-0.328500039415338,0.2308964470755212,-0.02189850151584786,0.008333053496336973,0.21175599731071026,-7.015004954815442e-05,-0.0008312232693862152,0.03644513346138481,1.3220549206540164,1.333883462235584,1.3162005112706467,1.3408171031504639,-1.79006517619477,2.3151348818759225,1.6249999999999987
6.299999999999986,-3.381998102345735,1.142973986860249,1.5537527285247152,1.0982043556071819,3.0167321719728513,0.10519503771182936,0.13049263292532914,0.2561568823675332,-0.3308259230879437,0.23091189115995203,-0.03414474835720708,0.008594509518870282,0.2127015238644004,-0.00014166227230130883,-0.0008116695028964535,0.03669486563000975,1.3218786154455022,1.3339824366997652,1.3167247136716933,1.3413157580474404,-1.6799021195289308,2.387341132915984,1.6299999999999986
6.349999999999985,-3.3205561298329154,1.290714924927222,1.5589888313227944,1.2288394502563893,2.9548187613394594,0.10472205596158357,0.14085175365811275,0.25031715907647145,-0.33299289757087097,0.22769489214468683,-0.045012195269421566,0.008824680477506027,0.2133939780813518,-0.00012003426317216082,-0.0008331031762644689,0.03692808655003376,1.3221590456254924,1.334214602929244,1.316673900140167,1.3415464293864487,-1.5668852948951115,2.454350888875217,1.6349999999999985
