time,x,y,z,vx,vy,vz,roll,pitch,yaw,p,q,r,delta_thrust,roll_torque,pitch_torque,yaw_torque,f0,f1,f2,f3,target_x,target_y,target_z,distance
0.0,0.0,4.0,1.0,0.0,0.0,0.0,-0.0,0.0,-0.0,0.0,0.0,0.0,5.970396319834772e-16,-2.3062562375964596e-18,-0.0,-0.0,1.2753000000000003,1.2753000000000003,1.2753000000000003,1.2753000000000003,0.0,4.0,1.0,0.0
0.05,-5.843109596036271e-08,3.999999933815651,0.9999992275172687,-1.1686219192072543e-06,-1.323686982246386e-06,-1.5449654626742415e-05,5.255400238146915e-06,3.2911200781690926e-05,-5.610580417626663e-08,0.0001051080047629383,0.0006582240156338185,-1.1221160835253326e-06,0.13834056301751615,0.00013153749190838193,0.001706813247496838,5.2346194166403606e-08,1.3038263747617214,1.3169557336078708,1.31594388057394,1.3028145740739847,0.17948996985214075,3.9859732836291557,1.005,0.18010670418947614
0.1,-6.298990739151853e-07,4.0000002505583145,1.0003642143513132,-1.1429359559096452e-05,6.334853273060048e-06,0.007299736680890234,0.00027678265204873607,0.0007106814762922875,5.371369987539922e-08,0.005430544151598695,0.013555405839161455,2.3751160942661027e-06,0.13813319001267277,0.0001613883771195494,0.002980261988434059,-1.0351429678243598e-07,1.2989915017997635,1.3219165422613388,1.3206751449637215,1.2977500009878495,0.3577211122550178,3.963941592131968,1.01,0.3596636206545413
0.15000000000000002,6.3943158169312286e-06,3.9999964282545157,1.0013918644170139,0.00014048429781692828,-7.644607597612207e-05,0.020553001314014274,0.0002816955789882493,0.0030742624027902885,1.1245557512059443e-08,9.826088806450827e-05,0.047271618524853676,-7.795351354022322e-07,0.11714737891641423,0.0006061711829642904,0.003465221470294777,3.074078620429133e-08,1.2935904897849437,1.320246054926835,1.3155831843028705,1.288927649901765,0.5343386383265053,3.9339894831125792,1.015,0.5385657296472858
0.2,6.025872878654568e-05,3.999986208463298,1.0030350570954432,0.001077288259392289,-0.00020439582435471948,0.032863853568585455,0.0009301702976694917,0.007802472828938493,-3.608485271912044e-06,0.012969245626628392,0.09456422130471956,-3.252261003060962e-05,0.09612558249147085,0.0005286769508711993,0.003303452338937142,1.739159440988412e-06,1.2886587478019846,1.3140707892196835,1.3100031738640303,1.2845928716057728,0.708992797625687,3.896217137920189,1.02,0.7166876404654546
0.25,0.000252465606716011,3.9999608007306473,1.0051807082698385,0.0038441375585893064,-0.0005081546530139036,0.042913023487907154,0.001668482204660992,0.01491304022102262,-1.276705190975135e-05,0.014764456255451001,0.14221144364746716,-6.795462288846785e-05,0.07952720957020942,0.0008423519161717839,0.002871022114402218,4.2192787094814435e-06,1.2873781698873734,1.3094650650221298,1.302983325258377,1.28090064940233,0.8813395615610423,3.8507400807741767,1.025,0.8938535105073095
0.3,0.0007331668875988323,3.999903126603759,1.007743572232357,0.009614025617656426,-0.0011534825377701452,0.05125727925037182,0.0034933033883922703,0.024266763306756027,-4.88665835171821e-05,0.03648488596868434,0.18707542399117377,-0.00017770391836205917,0.06608585486904324,0.0005366641381310721,0.0022595360985324764,1.2767136849221201e-05,1.2851918413161203,1.302579271796333,1.298444702549977,1.2810700392066134,1.0510412917985839,3.797688868207939,1.03,1.0698285433327983
0.35,0.0017097781825295662,3.999779903307452,1.0106470653490136,0.01953222589861468,-0.0024644659261330304,0.05806986233312994,0.005749469905359115,0.03538059971115461,-0.0001180829811499468,0.0450870135961826,0.22228016602931402,-0.0002893136684187794,0.055639348484016936,0.0006435590732554652,0.0017027134167286783,2.509997255263591e-05,1.285129891576046,1.29824023707562,1.2932772326796862,1.280191987152665,1.217767392390671,3.7372087496086017,1.035,1.2443202149183537
0.39999999999999997,0.003437918247768256,3.9995401214189785,1.0138285386050312,0.034562801304773794,-0.0047956377694724495,0.06362946512035172,0.00850795802604711,0.047911411008998574,-0.0002397025326859636,0.055081184358263216,0.2506254206061488,-0.0004805317288195253,0.047646406410091866,0.0007233771245436772,0.0011367326692032817,4.656913857257897e-05,1.285610130299958,1.2943775123246546,1.2887897883358015,1.280068975449678,1.3811949443855902,3.6694592996844717,1.04,1.4169871973100572
0.44999999999999996,0.006211355746136779,3.99912141336953,1.0172366264058987,0.055468749967370466,-0.008374160988973145,0.06816175601735086,0.01186661451248213,0.06141452366051595,-0.0004312584562236253,0.06698786091509637,0.270083710835146,-0.0006132926831449605,0.04167168188333538,0.0007475657824131721,0.0006509973929602096,7.347047728033179e-05,1.2860709697340253,1.2911153772262056,1.2853281359690023,1.2803571989541027,1.5410093217196612,3.5946140237447897,1.045,1.5874513628866918
0.49999999999999994,0.010351983264988257,3.9984478500375054,1.0208157143639243,0.08281255037702956,-0.013471266640490143,0.07158175916051057,0.015776315537878456,0.07555783217428177,-0.0007100268137814525,0.0778567139304896,0.28290912879949487,-0.0007748715462138848,0.03822660818998691,0.0008030936080234514,0.00019946277077168278,0.0001113213178973671,1.2871504787843755,1.2887404684492603,1.2825071646516697,1.281028496304682,1.6969047872375225,3.5128599367270255,1.05,1.7553084357653306
0.5499999999999999,0.016200417812569538,3.9974299459422906,1.0245267257366144,0.1169686909516256,-0.020358081904294778,0.07422022745380286,0.02063988320693308,0.08997065112123277,-0.001131265801140414,0.0966832695149133,0.28834288432619537,-0.0010801149826585262,0.036505635808309095,0.0005819995871089301,-0.00017000910673893664,0.0001710242575464995,1.287275994017875,1.2860537437871178,1.2814913117575066,1.28288458624581,1.848585067732277,3.4243971169554785,1.055,1.9201376900634832
0.6,0.024109626209701533,3.9959586268104825,1.028324885782936,0.1581841679426399,-0.02942638263616182,0.07596320092642994,0.025927645608261492,0.10434181789343502,-0.0016681414617399318,0.10486567351375387,0.28756713798945976,-0.0012325126543594712,0.03705664554278931,0.0006764300138066884,-0.00047139961058126453,0.00023740245676984049,1.2889195400960742,1.285412090473834,1.280090081446936,1.2838349335259458,1.9957639069451867,3.3294382356612147,1.06,2.0815074699411964
0.65,0.03443228676868112,3.993909516148015,1.0321741136567395,0.2064532111795917,-0.04098221324935203,0.07698455747607191,0.031750086417279375,0.11851301036364381,-0.002347842155485108,0.11517056320021529,0.28365142804643323,-0.0014616198433362259,0.039528550135588106,0.0006935473826960209,-0.0007865371708426748,0.0003229239201816362,1.2907940394520776,1.2849052154826093,1.2794087736556259,1.285620521545276,2.138165595514564,3.228208063337353,1.065,2.2389886306047826
0.7000000000000001,0.04752168593508213,3.991146084095393,1.0360418469371608,0.2617879833280202,-0.05526864105243945,0.07735466560842674,0.038338325899527244,0.13216956813869526,-0.003201985904127681,0.1299859732013933,0.2734879705008181,-0.0014988311784367354,0.043862848381331726,0.0005358122059831508,-0.0010004162470200679,0.0004201030826635494,1.2920692572977566,1.2845837992466262,1.280252115351578,1.2881576764853717,2.275525476915234,3.120942954045278,1.07,2.392155416424774
0.7500000000000001,0.06371898121987139,3.987516135886857,1.03989901603724,0.32394590569578524,-0.07259896417071587,0.07714338200158544,0.04533338974503419,0.1451729094594591,-0.00420990166772534,0.13760765866865937,0.2605725862524212,-0.0017160988371372862,0.049986458568710035,0.000575771058299194,-0.0012070846641812326,0.0005418938253034368,1.2945182785800071,1.2855039588451111,1.2808040037916961,1.2903602173518958,2.407590428483364,3.007890308826461,1.075,2.5405968199255815
0.8000000000000002,0.08335581538801345,3.982853471832559,1.0437192438090666,0.39273668336284123,-0.09325328108596764,0.07640455543652891,0.053156068673041415,0.157353152616973,-0.005431846964014557,0.15350480045737552,0.24434069843595368,-0.0018005555149305063,0.05786165814898084,0.0003113790950875019,-0.0013780531267990601,0.0006822008242027451,1.29609268056922,1.2858333723136361,1.2830970480931692,1.2940385571729558,2.534119316676442,2.889308019411135,1.08,2.6839149928842527
0.8500000000000002,0.1067438805965513,3.976974941503853,1.047489327572478,0.4677613041707568,-0.11757060657411778,0.07540167526822739,0.0608866697940747,0.16860491777595327,-0.006746702569523392,0.1512040938639227,0.22595226963946208,-0.0020636175309078153,0.06676407583485328,0.000602616257613699,-0.00153977703743276,0.0008402442176085134,1.3000209321160285,1.2885966154753496,1.2835409836925942,1.2958055445508811,2.6548834257746305,2.765463893449068,1.085,2.8217337244688974
0.9000000000000002,0.13417521697620793,3.969692041182873,1.0511861653301036,0.5486267275931328,-0.14565800641960003,0.07393675515251275,0.06937953828430381,0.1787741980218447,-0.008274382100344643,0.1657820626396509,0.20462783659705563,-0.0020468064276658745,0.07739221958033407,0.0003293521378902942,-0.0016566780440982242,0.0010106319169994045,1.3020339745388665,1.289795613235072,1.286756819292801,1.300005812513595,2.769666859287471,2.6366350625189536,1.09,2.953703373532772
0.9500000000000003,0.16591976215661958,3.960805049530694,1.05480428292629,0.6348909036082329,-0.17773983304357976,0.0723623519237293,0.07813998162908242,0.18777764987743228,-0.009941166947037382,0.1706389412014596,0.18162122961401334,-0.002177880262847604,0.08872018764712106,0.0003162395609280446,-0.0017590433451288533,0.0012026680965105572,1.305161237218641,1.2922314686120588,1.2891975225566645,1.3033299592597574,2.878266913388889,2.503107374201614,1.095,3.079500816224714
1.0000000000000002,0.2022206058494908,3.9501013548928805,1.0583349879272776,0.7260168738574246,-0.21407389275626798,0.07061410001975243,0.08730703239835018,0.1955715027683387,-0.011752172211860725,0.17829136144069194,0.15781111279558777,-0.0019959952671447577,0.10098088350784772,0.00017402150364081764,-0.001868639420937814,0.0013980078137243133,1.3080521070949873,1.29437696161002,1.292339330752075,1.3074124840507662,2.980494421763496,2.3651747695280445,1.1,3.198833170145112
1.0500000000000003,0.2432924581773595,3.9373609159204395,1.0617811872919884,0.8214370465573739,-0.25480877944882074,0.068923987294216,0.09664835287358249,0.20193321865762445,-0.01367045932277765,0.181524034586471,0.12954261320032828,-0.002064978078489247,0.11346912378086119,0.00013109233547677038,-0.0018561258985945793,0.0016156597212625271,1.3109065130690205,1.2974364514020011,1.295620218960779,1.310705940349061,3.0761740713081642,2.2231386471364316,1.105,3.3114413910835676
1.1000000000000003,0.28931900828594265,3.922354100796733,1.0651440484397665,0.9205310021716628,-0.3001363024741277,0.06725722295556125,0.10618442694118967,0.2070180297270147,-0.015684232449222832,0.1852415112168769,0.10441669138654021,-0.0020319088559631786,0.12628368281336097,3.410721537537124e-05,-0.0019587034766713005,0.0018398154051077894,1.3140756233599353,1.2999285812419406,1.2987463103441919,1.314733167867294,3.1651446881946796,2.0773072154925605,1.11,3.417101609051676
1.1500000000000004,0.34045176723209636,3.9048471357526258,1.0684362984546873,1.0226551789230742,-0.3501393008821463,0.06584500029841678,0.11573003834719471,0.21067008631870301,-0.017737689694925562,0.1855211425273319,0.0761432387780303,-0.001840266594979835,0.13867598336503514,1.016148450406297e-05,-0.0019739987897162974,0.002061905665463967,1.3170849050949711,1.3029312518529623,1.3018221337548146,1.3180376926622872,3.2472594938617805,1.927994834545423,1.115,3.5156285865665398
1.2000000000000004,0.3968082348182446,3.884602438426328,1.0716651454778647,1.1271293517229652,-0.40489394652595934,0.06457694046354767,0.12524878494132824,0.21293331143943656,-0.019814449748002786,0.18524034608200454,0.048742877923692224,-0.0017396794413361192,0.15094209018248447,-2.823735374967421e-05,-0.0020217847127771424,0.0022903433363188307,1.3201304265539546,1.3057234081238285,1.3047954468691283,1.3214928086355733,3.3223863305679586,1.7755213482044356,1.12,3.6068776660185975
1.2500000000000004,0.45847184231260046,3.8613824610466083,1.0748496760975597,1.2332721498871169,-0.4643995475943896,0.0636906123938985,0.13475450968071565,0.21374032984676444,-0.02191175710153968,0.18542831189313042,0.02000476840430101,-0.0017871231970928644,0.16228468247102382,-0.00011816321168096354,-0.0020270813037455656,0.002527158712948226,1.3225813736013061,1.308252019852045,1.307897388277732,1.3247539007399414,3.390407856199909,1.6202114090363229,1.125,3.6907467440730484
1.3000000000000005,0.5254924929409418,3.834947255704328,1.0780042301369297,1.3404130125668268,-0.5287041068456055,0.06309108078740078,0.1441556827344881,0.21302290927086553,-0.02396521492230763,0.1840395918590558,-0.010135358953593753,-0.0012052588112808373,0.17292040078591647,-0.00019657740423061794,-0.001977793352938265,0.00273323031579576,1.324697623189483,1.3108504433247787,1.3109959620455778,1.3275763722260778,3.4512217080953147,1.4623937965885379,1.1300000000000001,3.7671746597222935
1.3500000000000005,0.5978792333724072,3.805058545387882,1.0811514137629452,1.4477348086293085,-0.5977742063289249,0.0629436725203103,0.1534005001793642,0.21089190687700277,-0.025975206697183506,0.1817653025817349,-0.03809873387754597,-0.0011290547833432477,0.18225087901768655,-0.00028427651139711175,-0.0019843360053817586,0.002955191848258908,1.3266626121538363,1.3128760849596448,1.3135852314308778,1.3303269504733284,3.504740635702635,1.3024007307519594,1.135,3.8361489829978237
1.4000000000000006,0.675603352239259,3.7714803580498715,1.084310728202588,1.5544823773370364,-0.6715637467602065,0.0631862887928536,0.16225581378637197,0.2073474898970633,-0.027875357036601215,0.17509215244684986,-0.06620255015313553,-0.0009458686876643002,0.19037057055415132,-0.0002609758839860832,-0.0019727888148437307,0.003160461101594382,1.3286864232510534,1.3150913552261294,1.3155186314752252,1.3322741606017436,3.5508926019645606,1.1405671815786407,1.1400000000000001,3.897703645315939
1.4500000000000006,0.7586036336170228,3.7339815027156407,1.0875025144118837,1.6600056275552744,-0.7499771066846161,0.06383572418591665,0.1708936564463769,0.20237173066349523,-0.02968703945439825,0.1719369901670817,-0.09460934501526576,-0.0006827795394945296,0.1971345604647707,-0.0003810669703805012,-0.001931499528760609,0.0033525431980181396,1.3297087064643043,1.316527289380539,1.3177823021690724,1.3343162624508553,3.589620853375762,0.9772301769704638,1.145,3.951916285982947
1.5000000000000007,0.8467790301189014,3.692339200128768,1.0907491947425703,1.7635079300375733,-0.832846051737457,0.06493360661373071,0.17915109368802914,0.1959957489196938,-0.03137523492713705,0.1656997442332097,-0.12252083605752326,-0.0005781562500563348,0.20231405240066946,-0.00043866016217374476,-0.0018800538131370846,0.0035373016254084976,1.3305380094282897,1.3178447078322473,1.319450365959341,1.3356809691807923,3.6208839587292276,0.8127281096518575,1.1500000000000001,3.998915958764497
1.5500000000000007,0.9399913364328836,3.646334362645301,1.0940696156859717,1.8642461262796428,-0.9200967496693391,0.06640841886802917,0.18698838025529546,0.188255571153246,-0.032901944146984684,0.1587576065330268,-0.14977957345459655,-9.38992621541309e-06,0.20603433583049108,-0.0005049950381100412,-0.0018195007244303245,0.003684922755677272,1.3309431443699355,1.3187894463290792,1.3208315621674718,1.336670182964005,3.6446558166288687,0.6474000448340801,1.155,4.038877257940915
1.6000000000000008,1.0380662584765108,3.595761361073724,1.0974866260412315,1.9614984408725444,-1.0114600314315414,0.06834020710519528,0.1943062996123897,0.1792065102598465,-0.03427023868756404,0.14989273834183836,-0.1760470500494058,3.375257734231865e-05,0.20794981011576114,-0.0005379994229475831,-0.001757704858380413,0.003836380752587093,1.3310195320924585,1.3194169158658258,1.3216371825891287,1.3370761795683488,3.6609256319089547,0.48158502997020414,1.1600000000000001,4.072025716511565
1.6500000000000008,1.14079497056718,3.5404231432186766,1.1010135283387894,2.054574241813385,-1.1067643571009445,0.07053804595115842,0.20129769029297423,0.16888784511614857,-0.03549079040989979,0.14483295306261715,-0.20144324495055033,0.0005327363775783577,0.2085676062001438,-0.000728488689215542,-0.001687272056346366,0.003952581304907951,1.3301413845589276,1.3191386593933325,1.3227661278886904,1.3377214343591937,3.6696978611632183,0.3156214079886776,1.165,4.098632739117163
1.7000000000000008,1.2479319329103495,3.4801344690976754,1.1046616910557723,2.14273924686339,-1.2057734824200228,0.07296325433965745,0.207177838780595,0.1573426416231992,-0.036451249979761235,0.12427623067030247,-0.22657964438795014,0.000593036950036482,0.20794961382001326,-0.0004368358850941012,-0.001585811629896107,0.004057663397184407,1.3306921250857149,1.3205224057851066,1.3218538501256998,1.3360812328234928,3.670992127648055,0.14984613537940913,1.1700000000000002,4.11901810965162
1.7500000000000009,1.359201209958726,3.41473053044547,1.1084567363248856,2.2253855409675305,-1.3080787730441124,0.07590090538226679,0.21287936154957632,0.14466957061150812,-0.037322227176504984,0.12200875807967401,-0.2491301452244503,0.0004946876763788984,0.20512542802476288,-0.0007486419359033551,-0.0015233695349468853,0.004159237388667028,1.3285212691938069,1.3188826606962414,1.3225618261242411,1.336359672010474,3.6648431058849518,-0.015405893510398769,1.175,4.133551553463386
1.800000000000001,1.474295886050221,3.3440578597823736,1.1123955026902994,2.301893521829901,-1.4134534132619248,0.07877532730827586,0.21767338548863,0.13088532299398864,-0.03795438776480879,0.10528927796518625,-0.2719127648200207,0.001241289161415497,0.20182641768999987,-0.0006326100351746436,-0.0014100065218928687,0.004199381954152274,1.3276967454213398,1.3189502323838553,1.321716772446584,1.334662667438221,3.6513003763470477,-0.17980251463275002,1.1800000000000002,4.142645393610481
1.850000000000001,1.5928762611277723,3.267980681661177,1.1164882195670263,2.371607501551023,-1.5215435624239326,0.08185433753453708,0.22202959336855843,0.11612748344890861,-0.03847499736767061,0.0976840002157059,-0.2916355977208586,0.0010333901906617708,0.19720524569965003,-0.0008296688044886855,-0.0013466210596149379,0.004266216935505673,1.325523035095368,1.3172975200276213,1.3215464792867047,1.3340382112899567,3.6304282506734107,-0.34301495353178146,1.185,4.146757944652917
1.900000000000001,1.7145791916647335,3.1863817100837544,1.1207340710164897,2.434058610739225,-1.6319794315484515,0.08491702898926867,0.2257888693833773,0.1003839154866107,-0.0388490663393262,0.08687286534778885,-0.3117441949202355,0.001319321937520638,0.19192396559051192,-0.0009627428612030929,-0.0012224351750872492,0.004296369623840192,1.3232057155835302,1.315950552894779,1.3212080823998058,1.332759614712397,3.6023055679121234,-0.5047184744816766,1.1900000000000002,4.146387489489738
1.950000000000001,1.8390143751867316,3.099156837328637,1.1251360835209872,2.4887036704399623,-1.7444974551023495,0.08804025008994909,0.2283556896368134,0.08377450097194943,-0.03904555102069167,0.06402764369467999,-0.32994389860905277,0.001318961045566551,0.18573845524860685,-0.0007177745248170994,-0.001107391667321991,0.004318387853713418,1.3221535443198962,1.3157943408058144,1.3191564893775507,1.3298340807453457,3.5670254623494357,-0.6645930182051937,1.195,4.142066665230528
2.000000000000001,1.9657680048520334,3.0062275946630503,1.1296885782117991,2.535072593306036,-1.858584853311731,0.09104989381623962,0.23031166423118146,0.06638813956532295,-0.03913842888905825,0.052584410409174845,-0.3459350600530129,0.0015317201546447617,0.17919379296940585,-0.0008403455181542599,-0.0010098866679749934,0.004320055000771083,1.3196705158376232,1.3140621843535856,1.3183663531466943,1.3282947396315028,3.524695103537048,-0.8223238269378212,1.2000000000000002,4.1343685591502854
2.0500000000000007,2.0944067416864462,2.907534530753259,1.1343767832303644,2.572774736688257,-1.9738612781958231,0.09376410037130523,0.231621313218613,0.048252514055184596,-0.039156014749277365,0.040340615035269416,-0.36140971006612044,0.001513410123818113,0.1729005707020126,-0.0009675837571911563,-0.0008741397167925902,0.004322775991950114,1.3170850485221366,1.312522284850476,1.3178038488328947,1.3266893884965052,3.4754354091828525,-0.9776020556344223,1.205,4.123895502323248
2.1000000000000005,2.2244765140798526,2.803041311797657,1.1391984698813404,2.6013954478681267,-2.0898643791120453,0.09643373301952085,0.23219566282190557,0.02952244512888417,-0.03911882019076102,0.026141045268777273,-0.3738645019536684,0.0014348357306683095,0.16612010203006178,-0.0010567079245966603,-0.0007795151505803321,0.00432183624424284,1.314683440392546,1.3108480881255877,1.3168156925003638,1.3249728810115649,3.4193807316221005,-1.1301253681492607,1.21,4.111278277861041
2.1500000000000004,2.3555086746052316,2.6927273640772444,1.144135839205779,2.6206432105075805,-2.2062789544082495,0.09874738648877113,0.2317264505437925,0.010217622611560721,-0.039035765692245594,0.00572333589329736,-0.38616802434967057,0.0015298842232362774,0.15986363207713178,-0.0009537371832608467,-0.0006349543717114694,0.004308633587330516,1.3129626618857222,1.3102327142816066,1.3154148373591787,1.3224534185506245,3.35667851863594,-1.2795985172565887,1.215,4.097161907149406
2.2,2.4870198843152487,2.57659504485799,1.1491736445556548,2.6302241942003413,-2.3226463843850897,0.10075610699751714,0.230272774778375,-0.0094752489599378,-0.038965669079977096,-0.0136830980212766,-0.3946919245260364,0.0012561204201151214,0.1540493200087123,-0.0008766480565354702,-0.0005564191727232584,0.0043120218671941594,1.3115026749822558,1.309378538433366,1.3139659740885037,1.3204021325045874,3.2874889494323796,-1.425733907417384,1.22,4.0822057933250635
2.25,2.6185167171372696,2.4546763247656687,1.1542931535135044,2.629936656440419,-2.438374401846426,0.10239017915699034,0.2281293998947805,-0.02962810217437715,-0.038938250823618376,-0.027121310855580248,-0.4044210548035243,0.001112265891463247,0.1489719014225817,-0.0009969105062777898,-0.0003820844324837021,0.0043148566894784576,1.309099545514837,1.3083178628404708,1.3138289768517146,1.3189255162155593,3.211984546651007,-1.5682521392381894,1.225,4.067082117353945
2.3,2.749494779200532,2.327023972937512,1.1594722179166852,2.619561241265247,-2.553047036563134,0.10358128806361666,0.22517850280170076,-0.05004056192169686,-0.03898699642370334,-0.043016892879397244,-0.41023735051797156,0.0009343366834431954,0.14493793871006921,-0.0010537033402961181,-0.0002733011900294521,0.004327619526150241,1.307451033064185,1.3075125259808797,1.3134541265277746,1.3177202531372303,3.1303497652970504,-1.706882534610406,1.23,4.052459302709605
2.3499999999999996,2.879442452978802,2.19370732447757,1.1646900066639145,2.598953475565402,-2.666332969198839,0.1043557749445867,0.22135209976257256,-0.07065332507925785,-0.039139598998232245,-0.060224316888812066,-0.4149252788147878,0.0009388935856782861,0.1419655863637323,-0.0010737229441516146,-0.00014546883895254,0.004344521724084245,1.3061350580629927,1.3071883278561691,1.3132754742568318,1.3165667261877394,3.042780559552619,-1.8413636415625296,1.2349999999999999,4.038987562892689
2.3999999999999995,3.007844369699271,2.054822721544631,1.1699267406967921,2.5680383344093816,-2.7776920586587828,0.1047346806575522,0.21638941277387178,-0.0913671160730777,-0.03946673848307733,-0.08257192918586664,-0.4178441837974529,0.0006268455130936468,0.14008401479490146,-0.0009169002786113538,-1.919823369761725e-05,0.00439396622565311,1.305769811969567,1.3078191163616426,1.3126752123150573,1.3150198741486345,2.9494839284530068,-1.9714437179037787,1.24,4.027299050753545
2.4499999999999993,3.1341801146112536,1.9104879931328298,1.175155727485716,2.526714898239648,-2.886694568236021,0.10457973577847834,0.21062127486765975,-0.11205070325602536,-0.03999848506551395,-0.09824917855681085,-0.41790393341653453,5.242055002353415e-05,0.13982996093525896,-0.0009604161423700438,6.901072665478038e-05,0.004477094375463899,1.305178882528315,1.3079482814595451,1.313097550751583,1.3148052461958164,2.850677441453878,-2.0968811927850997,1.2449999999999999,4.017992008495656
2.499999999999999,3.2579327110889866,1.7608501617698848,1.1803543378736827,2.4750519295546614,-2.992756627258899,0.10397220775933302,0.20403695584361034,-0.13266937327984832,-0.040749355736889634,-0.11395857509448855,-0.4173122069439669,-0.00013248299314810484,0.141066432420029,-0.0010016665853854242,0.00018770108605370604,0.004568771265711604,1.3048499242445828,1.3085781643855439,1.313998906332576,1.3148394374573267,2.7465887449507402,-2.2174451053526436,1.25,4.011627650015455
2.549999999999999,3.378582494908145,1.6060702867300503,1.1855087128018218,2.412995676383165,-3.095597500796692,0.10308749856278165,0.19658609881150585,-0.15316085297772666,-0.04176126809560261,-0.1304807278074726,-0.41556268996196877,-0.00036828493019658905,0.14333486996848122,-0.0010112667022291934,0.00032384129265720956,0.00469177040569528,1.3048257441411337,1.3096627162105752,1.3150958056402597,1.3149506039765133,2.637455050845415,-2.3329155197193283,1.255,4.0087040437963335
2.5999999999999988,3.4956160626169943,1.4463345558332192,1.1905842600208114,2.3406713541769886,-3.1947146179366204,0.10151094437979236,0.18807434887632277,-0.17339262731824906,-0.04310958263274585,-0.1506708512219348,-0.4113934117297449,-0.0008423198779219372,0.14803368009633905,-0.0008830742978808758,0.00043416121033395665,0.004862221205767466,1.306026574306432,1.3117973865272694,1.3161591551388538,1.3152505641237842,2.5235226082851474,-2.4430839155319224,1.2599999999999998,4.00965837376553
2.6499999999999986,3.6085235899714143,1.2818506497010753,1.1955655911784917,2.2581505470884,-3.2896781226428784,0.09962662315360582,0.1787905878870212,-0.1933040648930381,-0.04477986557521021,-0.16491359734161185,-0.40585887669353793,-0.0012242757580382738,0.15408913547520403,-0.0009242778995723113,0.0005509259618387268,0.005064947895529174,1.3068821858894917,1.3136525518514004,1.318229907900346,1.3165244898339665,2.405046159728422,-2.5477535534641618,1.265,4.01485334914409
2.6999999999999984,3.7168010163288403,1.1128491115995554,1.2004299456708771,2.1655485271485198,-3.3800307620303993,0.09728708984770851,0.16870972433145207,-0.21278317197136803,-0.04680740461567641,-0.17946023072930264,-0.3982056059718083,-0.001678749006997142,0.1620475964538965,-0.0009440009585523876,0.000647931847656887,0.005310658908725375,1.3083614159008725,1.3160008364910576,1.320607052871713,1.3182782911902535,2.282288382517606,-2.646739815020514,1.2699999999999998,4.024571453731148
2.7499999999999982,3.8199550241617923,0.9395773748597833,1.2051584865757479,2.0630801566590407,-3.4654347347954406,0.09457081809741474,0.15776207065926104,-0.2317662592034501,-0.04923128865068441,-0.19512623881756636,-0.3894645727176611,-0.002107017563972999,0.17176328659424261,-0.0009082831411384277,0.0007553197253872895,0.0055996790641486905,1.310442429318963,1.319052420584786,1.3232393744460842,1.3202290622444102,2.155519317161972,-2.7398705160903285,1.275,4.0390049321523
2.799999999999998,3.9174997518993258,0.7623031881110975,1.2097368219782783,1.9508945547506684,-3.5454837349737156,0.09156670805060774,0.14577266831232474,-0.25013975511921127,-0.052105897977319786,-0.21398229672179697,-0.37877897314682674,-0.002295312677788337,0.18303871305727318,-0.0007354460214736983,0.0008433828478139983,0.00592932289695428,1.3135049288120502,1.3229571506283275,1.3256497662681095,1.3221268673487867,2.02501578355559,-2.826986193748096,1.2799999999999998,4.0582546434829485
2.849999999999998,4.008965584793651,0.5813173124000045,1.2141495834642666,1.8293166578864994,-3.6197175142218607,0.08825522971976696,0.13293415464212913,-0.26787599725979727,-0.05543146286981427,-0.22881898344956544,-0.36753433033936045,-0.002845995259254749,0.19600447859777412,-0.0006511778593334086,0.0009551107116366955,0.006324343269931668,1.316542000866691,1.3270511779757854,1.3288980667972303,1.3247132329580678,1.89106078637292,-2.9079403658522223,1.2849999999999997,4.08233507467711
2.8999999999999977,4.093892075387733,0.3969320198593571,1.2183869393502553,1.6985298118816416,-3.687705850812948,0.0847471177197745,0.1195798257772864,-0.2848773599160564,-0.05912777173042265,-0.23710063295080963,-0.3541600571968101,-0.0031415606531311154,0.21037685900302255,-0.0007562614805683179,0.0010408172456734103,0.0067504089252454985,1.3192947712646685,1.3306762622324715,1.33311845377422,1.328487371731663,1.7539429109006412,-2.982599763052098,1.2899999999999998,4.11117083013442
2.9499999999999975,4.171836437272809,0.20947235443786952,1.222434675483748,1.5588872377015228,-3.749193308429752,0.08095472266985482,0.10532283790103704,-0.3010591801294032,-0.06331563795696614,-0.25271694467890493,-0.3397091176478259,-0.0035526686464490455,0.2264844239125718,-0.0006007330700577902,0.0011279819848833853,0.007236264882027912,1.32346313570017,1.335758052640287,1.336760943815102,1.3317022917570132,1.6139557105773716,-3.050844532871061,1.2949999999999997,4.144597175117736
2.9999999999999973,4.242373662297485,0.019282230200170256,1.2262866948598055,1.4107445004935215,-3.8038024847539855,0.07704038752114784,0.09051802782236162,-0.3163472395852325,-0.06789897738516762,-0.26148603350959293,-0.3235718696473442,-0.0038170273595586244,0.2438722116416913,-0.0006309232085425419,0.0011958460987848685,0.007760383965588977,1.3273019211216124,1.3403809292489062,1.3413539927164388,1.3360353685547344,1.4713970875233813,-3.1125684155910855,1.2999999999999998,4.182371731068943
3.049999999999997,4.305092284845798,-0.1732805174180576,1.229936389398883,1.2543724509662546,-3.8512549523645574,0.07299389078155194,0.07491782658601884,-0.3307056968164965,-0.0729671638211583,-0.27491534653986105,-0.30724471203605935,-0.004281258101495127,0.26260247569917544,-0.00047939631859600265,0.001289955250346334,0.008347003633976583,1.332058669674214,1.346154904186174,1.3456690663583857,1.339919835480402,1.3265686673501949,-3.167678891723524,1.3049999999999997,4.2241755538399195
3.099999999999997,4.359608157956531,-0.36784107679399897,1.2333844554595472,1.0903174622146672,-3.8912111875188273,0.06896132121328336,0.05888234969954598,-0.34404444983702437,-0.0783900560649427,-0.28163250439868576,-0.2888606792159994,-0.004328865165589984,0.2822371636687283,-0.0005098011048915088,0.0013491282011286769,0.00895624266060295,1.3364705021519538,1.3513265327217068,1.3507699583521091,1.3448701704429593,1.179775169545173,-3.2160973009088654,1.3099999999999996,4.269633625273182
3.149999999999997,4.405553240125154,-0.564012422899431,1.2366310474001976,0.918901643372454,-3.92342692210864,0.06493183881300713,0.042222439218784574,-0.35628846792652125,-0.08424557743224179,-0.29209141271419736,-0.2694579490713397,-0.004768640982351027,0.3028089031770383,-0.00039096053939591214,0.0014009635638323075,0.00963002846313167,1.3417027028968298,1.357294359927106,1.3554867344601238,1.3495251058929796,1.0313237747286088,-3.2577589321471354,1.3149999999999997,4.318314073103766
3.1999999999999966,4.442582627358179,-0.761394605512481,1.2396775282194372,0.7405877446605125,-3.9476436522609992,0.06092961638479277,0.025174959690039096,-0.3674642778230847,-0.09043495340705658,-0.298191641424484,-0.2504409674254314,-0.004943839592692918,0.32424023882883724,-0.0003786019428695167,0.001492021701268845,0.01033034014199699,1.346582768348101,1.3632250284288598,1.3609721809953192,1.3546602610565575,0.8815234900807947,-3.292613085319141,1.3199999999999996,4.369743799260368
3.2499999999999964,4.470380712436433,-0.9595767450619025,1.2425308344643886,0.5559617015650709,-3.963642790988431,0.05706612489902785,0.007553377879305016,-0.37743324354758023,-0.09700421178894382,-0.30820233020933957,-0.2291859211523824,-0.004897687007083205,0.34616731300956466,-0.0002059696757091865,0.0015333400522527644,0.011064106577847345,1.3523861488080757,1.3697131255758666,1.365765454407783,1.3595025842178394,0.7306845142337222,-3.320623104017104,1.3249999999999997,4.423422738926448
3.2999999999999963,4.488648843920863,-1.1581359551510513,1.2451990890830935,0.3653626296886081,-3.9711842017829757,0.05336509237409803,-0.010158052041065383,-0.38613463894658223,-0.10378551896586571,-0.30965790425402323,-0.2060572338504108,-0.0052398773193774355,0.3684824667094686,-0.0002803322283283336,0.0015331997199986532,0.011837560961460648,1.3574861035588213,1.3751987280395412,1.371436349315183,1.3655612857959234,0.5791176029167033,-3.3417663797612835,1.3299999999999996,4.47882434910807
3.349999999999996,4.497126260292956,-1.356641966738754,1.2476927222661591,0.16954832744184856,-3.970120231754053,0.049872663661312266,-0.02809273939988708,-0.39364613490558475,-0.11078884823429366,-0.3138063460462454,-0.18485188462099772,-0.005177888419074576,0.3910003775974562,-0.00025208426461128505,0.001610407597189021,0.012619286913195632,1.3627318424333719,1.3814292366375776,1.3770587029087589,1.3709805956177485,0.4271334366372721,-3.356034327736741,1.3349999999999995,4.535419931888464
3.399999999999996,4.495575282576092,-1.554660042109775,1.2500315313198902,-0.0310195543372771,-3.96036150742042,0.04677618107462145,-0.04629549108179595,-0.3998850898208957,-0.11801623827840613,-0.319357788060605,-0.16225166080450454,-0.005154831502167831,0.41307080925024625,-0.00015016500260243247,0.0016609605148553994,0.01342770256824225,1.3682449092956634,1.387735379924826,1.3821766440453391,1.3761138759844185,0.2750419916681643,-3.3634323342414616,1.3399999999999996,4.592673817048415
3.4499999999999957,4.48378856774439,-1.751748333905621,1.252230562689354,-0.23573429663404255,-3.9417658359169216,0.043980627389275107,-0.06460100110057465,-0.4048190947459207,-0.12538794547090598,-0.3224211757846064,-0.13880550062628286,-0.005186411730940419,0.43490790758965836,-9.924966285648194e-05,0.0016982091354432738,0.01425452250587717,1.3735500432005616,1.3937404516492178,1.3873766493413293,1.3814407633985502,0.12315191559818538,-3.363979676093377,1.3449999999999995,4.650058933096689
3.4999999999999956,4.461589549068969,-1.9474592076255832,1.2543092363575379,-0.4439803735084169,-3.914217474399244,0.04157347336367856,-0.082860947552687,-0.40838818484984235,-0.1328210355599363,-0.32345761806263446,-0.11393095901063384,-0.005146190653773354,0.4561609621001529,-9.401551599855508e-05,0.001699161794380178,0.015085268968898478,1.3786720874736647,1.3992851972995002,1.3924657590919627,1.3869379182350259,-0.028230091310771952,-3.3577094122994033,1.3499999999999996,4.707063072146866
3.5499999999999954,4.42883502386955,-2.1413437395366106,1.2562866474624288,-0.6550905039883759,-3.877690638220548,0.039548222097818275,-0.10103956518746224,-0.4106255738352858,-0.14026898450438893,-0.32432694355105646,-0.08968982394796805,-0.004923884035238141,0.4767610079987955,-7.793413310017825e-05,0.0017267933704884673,0.015910204746898037,1.3835714411837872,1.4048095694840708,1.3974539604421614,1.3921260368887762,-0.17879988773625416,-3.3446682483443206,1.3549999999999995,4.76319574215832
3.599999999999995,4.385416719267182,-2.332950036579987,1.2581915302369675,-0.8683660920473635,-3.8321259408675257,0.03809765549077415,-0.11922442474704241,-0.4114966479494309,-0.1477501449452616,-0.3274563644009481,-0.06504952046498409,-0.004825414547372472,0.4959995846219991,3.419234391481601e-05,0.0017458226515948928,0.016743943274646622,1.3885307168457608,1.4103320934953527,1.4016971038279156,1.3966396704529704,-0.32825649467333373,-3.3249163735109604,1.3599999999999994,4.817995158355814
3.649999999999995,4.331259879838346,-2.5218269345778284,1.2600467614428439,-1.083136788576713,-3.7775379599568293,0.037104624117527685,-0.13718875138295814,-0.41099747016134525,-0.1551396202817796,-0.32707084981100687,-0.039780057779391656,-0.0044857673928859945,0.5141199774634723,5.5731666993354976e-05,0.0017473780740942819,0.017557514002234664,1.3929342835303058,1.4151544103321485,1.405946948200313,1.401284335400705,-0.47630268939700876,-3.298527271695786,1.3649999999999995,4.871030327669458
3.699999999999995,4.266324815997604,-2.7075222154724483,1.2618792738365252,-1.2987012768148531,-3.713905617892399,0.03665024787362636,-0.1549389376154178,-0.40917814081188697,-0.16242886019930117,-0.32722759911070814,-0.015514898433177922,-0.00437215628200444,0.5307549758186463,0.00011236774170002726,0.0017819941957244881,0.01836913866622252,1.3969748190803197,1.41986703607285,1.4098180994958924,1.4052950211695845,-0.6226455888525831,-3.265587506235302,1.3699999999999994,4.92190599053673
3.7499999999999947,4.190608786497853,-2.8895852206630854,1.26371835486249,-1.5143205899950196,-3.6412601038127423,0.03678162051929501,-0.1721986917285843,-0.4060027428573856,-0.16948116786966475,-0.3230514689417913,0.010314614085487896,-0.0041250624843390165,0.5456277744672884,3.952040556529914e-05,0.0017674763322695123,0.019148750878551765,1.4002737715637066,1.423444118789671,1.4135657402306618,1.4095441438832492,-0.7669972213449089,-3.2261964793088396,1.3749999999999996,4.970266398593765
3.7999999999999945,4.10414694429162,-3.0675721424324185,1.2655921181024379,-1.729236844124653,-3.5597384353866612,0.03747526479895846,-0.18921748848832737,-0.40145475009445086,-0.17635952575076053,-0.3239892250831264,0.035774087008183325,-0.0035576191747879195,0.5586774212665977,0.0001435042887035727,0.0017557581464911897,0.019895732821988674,1.4037944457350462,1.4272481440421267,1.4161963984872585,1.4126384330021668,-0.9090750854267075,-3.1804661665319007,1.3799999999999994,5.0157979767302034
3.8499999999999943,4.007010048505267,-3.2410446234362964,1.2675285060831667,-1.9427379157270686,-3.469449620077558,0.03872775961457631,-0.20568555863937077,-0.39557691919807564,-0.18293998577948806,-0.31966688852793795,0.06144945852347101,-0.0033061090783368897,0.5697837876429599,9.384924668775866e-05,0.0017298860746212483,0.020622323698329868,1.406297916647952,1.429915894455742,1.4188828153243633,1.415887161214903,-1.048602694917578,-3.128520827401506,1.3849999999999993,5.058229074292365
3.899999999999994,3.8993081078460676,-3.409570601602108,1.2695541194410214,-2.1540388131839805,-3.3705195633162344,0.04051226715709344,-0.2218203292726286,-0.38842520524614504,-0.18928345013011147,-0.31952871226854573,0.08540396091735811,-0.0029019172819428414,0.5789027141308207,0.00019401562542826966,0.0017475663440032045,0.02131610689508128,1.408721456737493,1.4328223282158272,1.420671846880377,1.4178870822971237,-1.1853101090187725,-3.070496692300538,1.3899999999999995,5.097334669941386
3.949999999999994,3.781187924286101,-3.5727251339322246,1.271698440987475,-2.3624036711993313,-3.263090646602329,0.04288643092907218,-0.2372783659876831,-0.37996424890303504,-0.19524129170539373,-0.31367018243407346,0.11135071421533921,-0.002403239865103644,0.5857244531456927,0.00012408237226285514,0.0016912245386301852,0.02196282731219278,1.4102129365877314,1.4342037697717522,1.4222678763290189,1.4202398704571904,-1.3189344465241275,-3.0065416268121052,1.3949999999999994,5.132934368899402
3.999999999999994,3.6528348936484383,-3.7300956122004694,1.2739853127338414,-2.567060612753256,-3.147409565364896,0.045737434927328735,-0.2523017867810223,-0.3702495053200933,-0.20090430652775335,-0.3123373788057005,0.1354961618048854,-0.0021159591573615905,0.590473909987381,0.00021255279943936792,0.0016725517112514668,0.022585209329235977,1.4116567947344898,1.4358151817933498,1.4228875555945828,1.4213143778649588,-1.4492203831647714,-2.936814774137108,1.3999999999999995,5.164895181618192
4.049999999999994,3.5144706860995014,-3.881275330837255,1.276438755029806,-2.767284150978737,-3.0235943727357117,0.04906884591929117,-0.26682603393376636,-0.359299385060609,-0.20621806482426808,-0.31003858623291497,0.15963037027413154,-0.001407513310932652,0.5930278403326156,0.00029596628378008937,0.0016349485200757975,0.02315119077452422,1.4126192307114622,1.4367713531762307,1.4229190940675833,1.4219181623773394,-1.575920631164194,-2.8614861764486377,1.4049999999999994,5.1931283130681996
4.099999999999993,3.366356109430634,-4.025873328037942,1.2790788333202088,-2.962291533377348,-2.891959944013749,0.05280156580805606,-0.28070397339288977,-0.34720585509001,-0.21114058494010354,-0.30487620783050373,0.18267966673219804,-0.0010330316951471827,0.5935279129062069,0.00030761920703553615,0.0016122736940890994,0.023687068577000904,1.4127423092090186,1.436987948836666,1.4227781129555845,1.422219541904938,-1.6987964001208895,-2.7807363760553474,1.4099999999999993,5.217592962860691
4.149999999999993,3.208782275694632,-4.163507130612956,1.2819229086697956,-3.151476674720044,-2.7526760515002735,0.05688150699173722,-0.29391418564284844,-0.33394058473603716,-0.2156444944215629,-0.2995682391859359,0.20655078903614976,-0.00027669570469442877,0.5920536808539933,0.00032990266986070437,0.0015402333186175514,0.024160392877612416,1.4126182041142614,1.4365463491578179,1.4219284398739294,1.4221606877079853,-1.817617838378044,-2.694755997282437,1.4149999999999994,5.238285741599669
4.199999999999993,3.0420818575841766,-4.293809903199194,1.2849883032839744,-3.3340083622091043,-2.6060554517247603,0.06130789228357525,-0.30648766849311554,-0.3196005626821585,-0.21976423861742214,-0.29449113187150466,0.22859003939943248,9.41910261155243e-06,0.5885257528762731,0.00037980710218937775,0.001498529923449101,0.024609998980484105,1.4119761583921793,1.435808311139722,1.4205817185557155,1.4213595647886568,-1.9321644540834397,-2.603745310013512,1.4199999999999993,5.255251930833469
4.249999999999993,2.866614233632512,-4.416431606321358,1.288281159325502,-3.5093524790332875,-2.452434062443274,0.06585712083055029,-0.3181837292582714,-0.3042642649613695,-0.22340825430820027,-0.2846100387360271,0.25029215587159026,0.0006935223014374616,0.5835814698542345,0.00028904026166977077,0.0014447151287148626,0.02498999290835169,1.410502965901682,1.4341111556536643,1.4193927725712596,1.4207745757276289,-2.042225515187869,-2.507913775868941,1.4249999999999994,5.268570966604618
4.299999999999993,2.6827747818432797,-4.531040984813273,1.2918138179895604,-3.676789035784651,-2.2921875698382976,0.07065317328116993,-0.3293328652918933,-0.2879047534322507,-0.226688793086336,-0.2809303554850946,0.27133633556448555,0.0013590485860577421,0.5767923409335087,0.00041551986070503,0.0013781736624154117,0.025330045316907124,1.4094630592821873,1.4327294178053749,1.4168680885261136,1.418931775319833,-2.14760042767678,-2.4074795780266935,1.4299999999999993,5.278364626855366
4.3499999999999925,2.4909863456401626,-4.637322043021462,1.2955879894445348,-3.8357687240623406,-2.125621164163789,0.07548342909948769,-0.3397336114798127,-0.2706271890707417,-0.2295646687962711,-0.27294268617605916,0.29136642524768464,0.0018126686329580132,0.5687835024786987,0.0004331331124059605,0.0013126360498954526,0.025633480178243635,1.4077048019693847,1.430618742442318,1.4144702091808428,1.4171897488861533,-2.2480990913774614,-2.3026691357197606,1.4349999999999992,5.284786720919958
4.399999999999992,2.2917005141819744,-4.73497817815964,1.2996026503131473,-3.9857166291637647,-1.9531227027635545,0.08029321737224926,-0.34955601953479243,-0.25246456968071207,-0.2320806410186614,-0.26786563692173465,0.3101877378248342,0.0025567394280786725,0.559721611365123,0.00057280928277834,0.0012497547131901925,0.025884688024046004,1.4061555945644546,1.4287114363702482,1.4113628671060838,1.4146917133243364,-2.3435422327328346,-2.19371660447011,1.4399999999999993,5.288023933808963
4.449999999999992,2.085394951262277,-4.823729770457061,1.3038562281291994,-4.12611125839395,-1.7750318459484227,0.08507155632104357,-0.3584411190482512,-0.23353733325649134,-0.23417752299445635,-0.2552993966329,0.3284400613287961,0.0029189087301343918,0.5496455514323916,0.0004965028145382461,0.0011747742167853758,0.026104641039721082,1.4035764914356788,1.425665536700042,1.4087939637606566,1.4128095595360144,-2.4337617139825443,-2.0808633631427744,1.4449999999999992,5.288290334100218
4.499999999999992,1.8725707548734103,-4.903320797214763,1.308339499172073,-4.2564839277773325,-1.5918205351540493,0.08966542085746987,-0.36672893738027995,-0.21385145717698742,-0.23595424485584085,-0.24891855946449698,0.34522648628603725,0.0033862683145586795,0.5390536069215943,0.0006405916547295546,0.0011076959882351225,0.026284422708651504,1.4016957409243684,1.4233586906497335,1.4052888511821033,1.4099103241653899,-2.518600818242711,-1.9643574889249484,1.4499999999999993,5.285826407432593
4.549999999999992,1.6537503252299035,-4.9735123502066525,1.31304097526569,-4.376408592870136,-1.4038310598377812,0.09402952187234082,-0.374270851143021,-0.1934755206557804,-0.23738465015599317,-0.2391975768707168,0.3615008133575085,0.00406376980647066,0.5281332523387261,0.0007121564797280355,0.0010197631537606075,0.026416795598643315,1.399546011592588,1.420598741343914,1.4019122167774538,1.407276282624771,-2.5979145100269854,-1.8444532213539344,1.4549999999999992,5.280891711436624
4.599999999999992,1.4294777440259692,-5.0340855353975025,1.3179444438904067,-4.485451624078687,-1.2114637038169995,0.09806937249433378,-0.38092628063479406,-0.1725113515360776,-0.23848006808815503,-0.22607166029988607,0.3765988364143441,0.004443883479734175,0.5172407960033294,0.0006976230306167702,0.0009326839515213529,0.026523862644016297,1.3970751528748107,1.4175115761315986,1.3988833138048458,1.4049707531920745,-2.6715696708036485,-1.721410416534334,1.459999999999999,5.273763942653994
4.6499999999999915,1.2003126841173457,-5.084847099365559,1.3230339204056571,-4.583301198172469,-1.015231279361135,0.10178953030500981,-0.38673597175058777,-0.15103767703925558,-0.2392638206960652,-0.21309536060420683,0.39012023769771975,0.005119799958559602,0.5064360907680239,0.0007060466977178307,0.0008589211240944453,0.026583884940374506,1.3946750728939254,1.41457410093407,1.3958510300198994,1.4025358869201296,-2.739445309236048,-1.5954939926990879,1.4649999999999992,5.264734800248755
4.699999999999991,0.9668294551786254,-5.125625783062713,1.3282927994943847,-4.669664578774406,-0.8155736739430708,0.1051775817745515,-0.39174272717259107,-0.12909965657668587,-0.23979201676727904,-0.20048007366164083,0.40268480251191796,0.005435263906045092,0.49583258981019185,0.0007484244433527454,0.0007775946240393611,0.02663008530854958,1.3924884331227698,1.4117849728850396,1.3927128191280516,1.4000463646743313,-2.801432745806732,-1.4669733682807526,1.469999999999999,5.254104913136016
4.749999999999991,0.7296142369373887,-5.156277233732272,1.3337002831315234,-4.744304364824734,-0.6130290133911842,0.10814967274277443,-0.3959420838037955,-0.10677585843423637,-0.24009903907974198,-0.18718611539691787,0.41383936703825774,0.005679199034700287,0.4857764854410377,0.000793427300775374,0.0007028062703993912,0.02665445372243339,1.3904290503541743,1.4091624792953863,1.3897319655051281,1.3976529902863497,-2.8574357715790266,-1.3361218936687262,1.4749999999999992,5.2421827701636605
4.799999999999991,0.489265131368583,-5.176675450489252,1.3392315772155698,-4.806982111376113,-0.4079643351395923,0.11062588168092802,-0.39953310999635117,-0.08407084878846491,-0.24022610023671329,-0.17752796555063857,0.42403616007708256,0.006184224214294044,0.47662095633557966,0.00098791898040907,0.0006147938153793896,0.026647951298805567,1.3892283480477696,1.4072815068923983,1.3863581544706178,1.3949529469247948,-2.907370780903412,-1.2032162778350979,1.479999999999999,5.229276151260178
4.849999999999991,0.246388966196922,-5.186720802948256,1.3448654477519149,-4.85752330343322,-0.2009070491800813,0.11267741072690018,-0.4020151046991492,-0.061165143421939204,-0.24017011576323322,-0.15714748150718869,0.43316059910498744,0.00642333750652206,0.46825188084596514,0.0008609729805373805,0.0005272286993214348,0.02663186619110499,1.3869886355145458,1.4043601739894938,1.3844213718128848,1.3936816995290415,-2.9511668779298152,-1.068536011016267,1.484999999999999,5.215692384481924
4.899999999999991,0.001598840712207443,-5.186336276370113,1.3505824239805884,-4.895802509694291,0.007690531562847269,0.11433952457347019,-0.40375122866854957,-0.037995002687623645,-0.23999170710924136,-0.14395620834977182,0.44184248933112547,0.0068793476160006264,0.4606542406633599,0.0009749137036889552,0.00040924214645698286,0.026593167690897087,1.3859909280786236,1.4024355284352794,1.3816396084076084,1.3917881757418493,-2.9887659568406857,-0.9323627846395655,1.489999999999999,5.2017313801553495
4.94999999999999,-0.24448669213911411,-5.175470486865687,1.356356741583721,-4.9217106570264315,0.21731579008852364,0.11548635206265256,-0.40453933761150823,-0.01478883312894173,-0.23973336189750644,-0.12565062894364004,0.44707195568676467,0.006987313008003636,0.45432314093442455,0.000946977908848457,0.0003645708003520577,0.02655980479161756,1.3844808613760726,1.4005651545438202,1.3800008066953313,1.3904763183192008,-3.02012275577338,-0.7949799096837386,1.494999999999999,5.187684956474443
4.99999999999999,-0.49124656269262773,-5.15409811296113,1.36216636435285,-4.9351974110702725,0.4274474780911497,0.11619245538258216,-0.4045280500833982,0.008535417243401398,-0.23942795722524543,-0.11056350784139338,0.4531954503217258,0.007360116303426055,0.44913850531663535,0.0010357906767197729,0.00025122720724888014,0.02651030025363706,1.3839746030714069,1.399162270177063,1.3779394994600924,1.3892621326080734,-3.045204884453836,-0.6566717346594435,1.4999999999999991,5.173832742624452
5.04999999999999,-0.7380589167506068,-5.122217106508465,1.3679892789325638,-4.93624708115958,0.637620129053289,0.11645829159427468,-0.40365426212448585,0.03180431626079137,-0.23913630436361333,-0.09340900986175113,0.45624357440899105,0.007251020601967234,0.3069104614409106,-0.0039094433075587,0.015,0.02648211779950156,1.2726784578043573,1.4013041320887234,1.4181357140163475,1.3159921575314828,0.0,0.0,1.5,5.176800738031142
5.09999999999999,-0.9843235457925044,-5.0799952733284375,1.3734729516124708,-4.925292580837953,0.844436663600554,0.10967345359814029,-0.40282665015828,0.06126418556575719,-0.2388414408290665,-0.12354031540612143,0.576340992007554,0.008447484923514754,0.30226752224519776,-0.001055144875003024,0.015,0.026399982211047057,1.2825163277969875,1.4111009342871266,1.406017442220088,1.3038328179409961,0.0,0.0,1.5,5.176026846318946
5.14999999999999,-1.2293574999161145,-5.027588473570379,1.3783056886798322,-4.9006790824722035,1.048135995161168,0.09665474134722629,-0.40139905436026035,0.10161951526531111,-0.23859376412763356,-0.1634227223698809,0.7909094106628323,0.01050851187937889,0.31922658381745816,0.002104440415641044,0.015,0.026287640333003823,1.2989364297774255,1.4274648653285427,1.398133041964802,1.2958922467466882,0.0,0.0,1.5,5.1771396762677195
5.1999999999999895,-1.4722374686147999,-4.965029780116824,1.382478657845241,-4.857599373973707,1.2511738690711027,0.08345938330817759,-0.3967180753889654,0.15220247767441528,-0.23878426495847704,-0.14926947371664448,1.004895068274411,0.011794091452618467,0.3397617757013992,0.0034585950577358912,0.008749717788715148,0.026256200261222332,1.3333259218178164,1.4137595434000827,1.374026865902272,1.3198494445812285,0.0,0.0,1.5,5.18004007197841
5.249999999999989,-1.7117570971052751,-4.8924092260266,1.3859829541473347,-4.790392569809505,1.452411081804481,0.07008592604187402,-0.3876580254339439,0.2102010493035536,-0.23995231195112568,-0.10222626877037438,1.1691249260761056,0.012296307955241264,0.3639222135858192,0.0035164910583075685,0.0002708773805790848,0.026366388347222016,1.372172085839374,1.387438952171286,1.3472058267799245,1.3583053487952348,0.0,0.0,1.5,5.184474928201065
5.299999999999989,-1.9464786450754905,-4.809943634547072,1.3887828300038445,-4.694430959404308,1.6493118295905518,0.055997517130195185,-0.37465844684548616,0.27031284116088955,-0.24249819347810916,-0.04234212717352047,1.227732039838709,0.012276740245423252,0.3934793279046188,0.0028886325515778224,-0.00556467913733648,0.026652293161919895,1.39951949595073,1.3700404183983323,1.3344940214206198,1.3906253921349374,0.0,0.0,1.5,5.190058394869635
5.349999999999989,-2.174847746699881,-4.7179787578145715,1.3907964023225616,-4.567382032487806,1.839297534650015,0.040271446374342545,-0.3589870578553654,0.32762701906400316,-0.24653612420282467,0.012830339455220066,1.1846875637955074,0.011216681339005337,0.4315707479171512,0.0021875023039455107,-0.008447647079365735,0.027147998139328777,1.417310108149499,1.3659022066086577,1.3355012667394124,1.4140571664195825,0.0,0.0,1.5,5.196269017887812
5.399999999999989,-2.395325432239196,-4.6169517468511,1.3919160642815946,-4.409553710786307,2.0205402192694244,0.022393239180660274,-0.3418782189331026,0.3793442397422509,-0.2518523141201395,0.05577761114634736,1.081564527995382,0.010661156239354257,0.4802364663201433,0.001731268329646434,-0.009352794495909316,0.02776613823381702,1.4310485928891037,1.372987088960556,1.3457865711540595,1.4316142133164242,0.0,0.0,1.5,5.202452257949486
5.449999999999989,-2.6064739148479874,-4.50734751691888,1.3920375942024368,-4.222969652175825,2.1920845986443993,0.0024305984168426775,-0.32413476325061086,0.42433754871595447,-0.2581862999147358,0.08884455893579295,0.9531589041732813,0.010035034378788376,0.5397644604350708,0.0015133720787898538,-0.00919999830692752,0.028501154620079194,1.4443210971680458,1.3878024567324887,1.3619105557394502,1.4469303507950861,0.0,0.0,1.5,5.207834846471553
5.4999999999999885,-2.8069997901517603,-4.389654340494541,1.391084947563485,-4.010517506075457,2.3538635284867837,-0.019052932779035636,-0.30605343286125386,0.4624062724693053,-0.2653271706363431,0.11834441773049834,0.819987090497249,0.009921168089857612,0.6088327557524855,0.0013699431604374283,-0.008566720614287595,0.02930550210837663,1.4583997510061235,1.4071546511811768,1.3819638758159312,1.462514477749255,0.0,0.0,1.5,5.211542529768114
5.549999999999988,-2.9957556658012505,-4.2643496560818015,1.3890335515469385,-3.775117512989805,2.5060936882547935,-0.04102792033092939,-0.2880250424385878,0.49392624828144566,-0.27301452542658433,0.14081789737971484,0.6928541929791056,0.009753598780057498,0.6844901215201052,0.0014366251981242206,-0.00779548121015623,0.030173252355651187,1.4743873188614232,1.429508704961124,1.403371115720804,1.4784229819767547,0.0,0.0,1.5,5.212633072755798
5.599999999999988,-3.1717390657250504,-4.131888974521644,1.3859129143958968,-3.519667998475997,2.6492136312031533,-0.06241274302083433,-0.2698437555172618,0.5193475505599546,-0.2812328611157008,0.16659970783774342,0.5760458158940496,0.009697372464662356,0.7633778431691137,0.001388319820985518,-0.00704209664580254,0.031095894050493268,1.4907951659980707,1.4521731388248362,1.4259458085612398,1.495663729784967,0.0,0.0,1.5,5.2101296588397465
5.649999999999988,-3.33408298622469,-3.9927096227309202,1.3818053373039223,-3.2468784099927905,2.783587035814472,-0.08215154183949025,-0.25163270435030227,0.5392210393614206,-0.2898286063553886,0.18960278482900159,0.4699678111386226,0.009771073838746001,0.8419679950762514,0.00141480460326509,-0.0063571555353446035,0.032055466537734195,1.5076702865138973,1.474796823357037,1.4478859777553612,1.512814907449956,0.0,0.0,1.5,5.2030577037710115
5.699999999999988,-3.4820540976600216,-3.8472369298823694,1.3768476552357878,-2.959422228706634,2.909453856971016,-0.09915364136269034,-0.2333489957876465,0.5540426569055399,-0.29874142358683403,0.21289511014729337,0.37434607289455046,0.009842380090106405,0.9163743459658333,0.0014193415173515056,-0.005764165789019335,0.03305064477846021,1.523759799552116,1.4959453851027356,1.4685020510415707,1.5293671102694113,0.0,0.0,1.5,5.190481599399288
5.749999999999988,-3.6150458967079566,-3.6958906204023965,1.3712117986540715,-2.6598359809587,3.0269261895994592,-0.11271713163432562,-0.21468210705068916,0.5641664005124599,-0.3080476533060793,0.24147636951346904,0.28784088249274914,0.0101728997975416,0.9837062866136063,0.001222272639318611,-0.005242370365797978,0.03407923869180276,1.5375707735385917,1.5142844669937394,1.4878427504223104,1.5452082956589652,0.0,0.0,1.5,5.171532723873008
5.799999999999987,-3.732578169022435,-3.5390867884575345,1.3651034263168955,-2.3506454462895654,3.1360766388972383,-0.12216744674351965,-0.1962647473650448,0.5701311097409439,-0.31735315051321783,0.2588613453684086,0.2091490893408365,0.01042830774786585,1.0409968101506308,0.0013656529260572153,-0.004788210074429581,0.035110833932072615,1.5504401979026659,1.5311632296807822,1.5031027902066136,1.5574905923605695,0.0,0.0,1.5,5.1454321654929025
5.849999999999987,-3.8342996039886454,-3.3772481726179135,1.3587468877919053,-2.034428699324211,3.23677231679242,-0.1271307704998037,-0.1776750032349106,0.5721903576150624,-0.326801537539391,0.2836237403549547,0.13815334445116384,0.011052478622891871,1.0860880299770996,0.001256893830749612,-0.004405382678684384,0.03614329292949778,1.559564170836647,1.5437482582345927,1.5160081976871544,1.5679674032187063,0.0,0.0,1.5,5.111517496234067
5.899999999999987,-3.919986476296407,-3.210797517526203,1.3523742256023161,-1.7137374461552302,3.3290131018342084,-0.12745324379178413,-0.15896775028560933,0.5706227111921546,-0.3363157176029762,0.3077522686639049,0.07288829836855523,0.011503349354693146,1.1174412910456577,0.0011334562559803488,-0.004043651346557126,0.03719023380330183,1.565274716628041,1.55276482317156,1.5254508119931374,1.5751509392529202,0.0,0.0,1.5,5.069251230918198
5.949999999999987,-3.989538530913712,-3.0401674384025004,1.3462133982626627,-1.3910410923461036,3.412601582474055,-0.12321654679306793,-0.14052159649584647,0.5657686119929799,-0.34563339009760935,0.32551248274486294,0.01259351315286809,0.012070617994678,1.134238476276015,0.001194143918637806,-0.003693432590580152,0.03821039053380953,1.5681053926248514,1.5587995679642161,1.5305086502462517,1.578024865440696,0.0,0.0,1.5,5.018235353392852
5.999999999999987,-4.0429808585652856,-2.865795789660889,1.3404872402154089,-1.0688465530314684,3.4874329748322275,-0.11452316094507697,-0.12208469066861323,0.5578121467487924,-0.3548264775048517,0.3477309757986523,-0.04227958714803491,0.012938974709959347,1.135746253140927,0.0010909251334393045,-0.00336514840328162,0.03920423580828123,1.566574248705165,1.5602906096609854,1.532296759961158,1.5777846348136189,0.0,0.0,1.5,4.958217830158077
6.0499999999999865,-4.080457393693963,-2.688125759796729,1.3353975526809265,-0.7495307025735443,3.5534005972832006,-0.10179375068964713,-0.10388265888770999,0.5470410377101546,-0.36374014375723546,0.36587736592177567,-0.09258020126970759,0.013612049152484365,1.122277372939434,0.0010914628798815692,-0.0030403862987901918,0.040174806382815446,1.5617173692494308,1.5584171855270679,1.529933914028879,1.573408904134057,0.0,0.0,1.5,4.889094661376265
6.099999999999986,-4.102228392573621,-2.507603783016533,1.3311228644178734,-0.4354199775931633,3.61043953560392,-0.08549376526106212,-0.08583861000335766,0.5336976437620977,-0.3723581361348612,0.38480578319309156,-0.13750824185047908,0.014627092825005591,1.094385589693594,0.001040524271460963,-0.002744453054089838,0.04109822787317484,1.5531794455533774,1.552617382150812,1.5240642353568328,1.5657245266325726,0.0,0.0,1.5,4.8109119722105085
6.149999999999986,-4.108659055557365,-2.324680165490544,1.3278120124724482,-0.12861325967488568,3.6584723505197836,-0.06621703890850483,-0.06791440208523088,0.5179590324127405,-0.38066513333428226,0.40414340030556106,-0.17856114612553187,0.015607227395519377,1.0531450794281194,0.0009406039567341312,-0.0024295540443879608,0.04198825547276797,1.541051352147,1.5433566026188612,1.515127059830676,1.554810064831583,0.0,0.0,1.5,4.723861324138069
6.199999999999986,-4.100209208067591,-2.139807477870778,1.3255794138687864,0.1689969497954813,3.697453752395319,-0.044651972073235235,-0.05028120897164815,0.5000827879688067,-0.3885539682248349,0.4196899836139839,-0.2156879831088384,0.016357761482154353,1.0000717236917407,0.000926897112528466,-0.002101816625634836,0.04284088016081511,1.5262566098756671,1.531509229758884,1.5029588118897956,1.5405470721673942,0.0,0.0,1.5,4.628273342526381
