time,x,y,z,vx,vy,vz,roll,pitch,yaw,p,q,r,delta_thrust,roll_torque,pitch_torque,yaw_torque,f0,f1,f2,f3,target_x,target_y,target_z
0.0,0.0,0.0,1.0,0.0,0.0,0.0,-0.0,0.0,-0.0,0.0,0.0,0.0,24.805,-0.0,-0.0,-0.0,1.9129500000000002,1.9129500000000002,1.9129500000000002,1.9129500000000002,0.0,0.0,2.0
0.05,-1.775020209467702e-07,-5.274298564514769e-07,1.0069353945913868,-3.5500404189354037e-06,-1.054859712902954e-05,0.13870789182773624,0.001039682783102609,3.231321315371384e-05,-0.00021460275663170015,0.020793655662052178,0.0006462642630742767,-0.004292055132634003,1.644902931752037,-0.0007106738584469712,-2.2055121922121272e-05,0.0002002223786329827,1.6838271437413326,1.6837576001466328,1.6891242109453697,1.6893939769187027,0.0,0.0,2.0
0.1,4.0644650006745844e-07,-1.945905926221178e-05,1.023544979380202,1.1678970420284573e-05,-0.0003786325881152061,0.3321916957763049,0.0007150725008560658,2.304453639875302e-05,-0.00021161681838123995,-0.006492165712326824,-0.00018676674197411352,5.950875504435133e-05,1.41399116448323,0.00012172346298029345,3.2663580009949904e-06,2.1255143336437868e-05,1.629248081584894,1.6292838349873389,1.6283368730850531,1.6283223748259443,0.0,0.0,2.0
0.15000000000000002,1.8752685279079388e-06,-6.623727411821e-05,1.0474484230472378,2.9376440556809605e-05,-0.0009355642971199645,0.4780688733407157,0.00013051913148005116,7.550685437522858e-06,-0.0002047507733487773,-0.011691001551657004,-0.0003123509598673057,0.0001370507628525347,1.2318724132352927,0.00032480017295121025,8.26315586769109e-06,1.7303126529923038e-05,1.5844812275928966,1.5845534418936051,1.5820463274614849,1.581991416287306,0.0,0.0,2.0
0.2,3.790375912533337e-06,-0.00012501683842303546,1.0776692567225925,3.830214769250796e-05,-0.001175591286096509,0.6044166735070933,-0.0002496842429435144,-3.375154047188223e-06,-0.00019894367738845106,-0.007604022588013782,-0.00022007371284948847,0.00011608420755749666,1.0670074298200616,0.00023718161239986296,6.469829111509686e-06,1.7513499245721224e-05,1.5429348320928518,1.5429933567587168,1.5411601260675565,1.541119114900937,0.0,0.0,2.0
0.25,5.74657913487021e-06,-0.00018118340150092343,1.1133771505266297,3.912406444673747e-05,-0.0011233312615577594,0.7141578760807432,-0.0003834755699977827,-8.929398589384392e-06,-0.0001937365965157376,-0.0026758043884307766,-0.00011161722801681291,0.00010415061323183103,0.9166718460645015,0.00010409565046906496,3.7618180577211764e-06,1.7420259441783482e-05,1.504849505806693,1.5048871529983967,1.5040777070958367,1.504057480163575,0.0,0.0,2.0
0.3,7.510348809902625e-06,-0.00022771740446848703,1.1538177843568451,3.527539350064829e-05,-0.000930680059351272,0.8088126766043091,-0.00036946105677145583,-1.0800044214887526e-05,-0.0001889952952989666,0.00028029750750078146,-3.7358609343933706e-05,9.482352113817365e-05,0.779697229476444,1.662769358145284e-05,1.7582892355450568e-06,1.7272182548624383e-05,1.470277179340189,1.470299340733275,1.470162799306759,1.4701579100962212,0.0,0.0,2.0
0.35,8.986834233845197e-06,-0.0002634431077175289,1.1983036775176774,2.9529708478851437e-05,-0.0007145140649808372,0.8897178632166458,-0.00030247176309135075,-1.067135827767918e-05,-0.00018467400358761747,0.0013397853631771366,2.826931438649954e-06,8.641135599907234e-05,0.6550760319560025,-1.9520067929939386e-05,5.916026897025758e-07,1.7133582592336905e-05,1.4389873720140463,1.4390004895952635,1.4391420771726589,1.4391460931740343,0.0,0.0,2.0
0.39999999999999997,1.0161929230801109e-05,-0.00028986492117331707,1.246208934185021,2.3501899939118246e-05,-0.0005284362691157637,0.9581051333468737,-0.00023460486491906575,-9.659409072706598e-06,-0.00018074083056740704,0.0013573342026233092,2.048964829711986e-05,7.864896726051411e-05,0.5418754213014404,-2.5149764868297993e-05,1.2345524077160985e-08,1.7011772768097756e-05,1.4106678250345053,1.410676425886459,1.4108613797298308,1.4108697906506453,0.0,0.0,2.0
0.44999999999999996,1.1059309138952603e-05,-0.0003090435539095648,1.2969645867111723,1.794759816302988e-05,-0.0003835726547249548,1.0151130505230244,-0.00018300952556275945,-8.372645110121635e-06,-0.0001771666733185767,0.001031902118820366,2.592178626287662e-05,7.147317255840314e-05,0.2871825479619754,-1.9396676189880295e-05,-2.3267641986696808e-07,1.6906087626700733e-05,1.3470177027771641,1.3470243660023633,1.3471651181600106,1.3471753610224382,0.0,0.0,2.0
0.49999999999999994,1.1722975905536562e-05,-0.0003227701063539796,1.3496484378653837,1.3273335331679179e-05,-0.0002745310488882959,1.0536770230842274,-0.00016795540617095574,-7.721298644519307e-06,-0.00016967619899784176,0.0003010800751642574,1.3080270853392229e-05,0.00014980696515796868,-0.0697590967128523,1.4965042581132862e-06,1.1611398284349965e-07,1.2851640882007144e-05,1.257862322104933,1.2578696411098573,1.2578517037182,1.2578572363541578,0.0,0.0,2.0
0.5499999999999999,1.2189262279446225e-05,-0.0003321329164901228,1.4027662111962405,9.325727478193262e-06,-0.00018725620272286368,1.0623554666171353,-0.0001747039616163294,-7.545739764841688e-06,-0.00015891607581058786,-0.0001349717027239888,3.4882761548691454e-06,0.00021520350582009194,-0.3398292409405703,1.559391488454846e-05,4.0953288776544295e-07,8.96211883852744e-06,1.1903988507043664,1.1904064820167684,1.1902820477659295,1.1902833785723657,0.0,0.0,2.0
0.6,1.2474394326096743e-05,-0.0003374567734530767,1.4548363404067575,5.702640933010367e-06,-0.0001064771392590778,1.0414025842103403,-0.0001624860981765333,-6.824008478359316e-06,-0.0001502398994949374,0.0002443549718106941,1.4473457834202718e-05,0.00017352168222025863,-0.5168870125030955,3.847932285545138e-06,4.395494963031546e-08,9.70156371805183e-06,1.1460904521653579,1.146095641062214,1.1460611908012355,1.146065703468097,0.0,0.0,2.0
0.65,1.2596253732115067e-05,-0.0003389999781494136,1.5048070165266239,2.4371881203664767e-06,-3.086409392673859e-05,0.9994135223973277,-0.00012722590253649263,-5.497949367847889e-06,-0.00014438119812922338,0.0007051999202921144,2.662713159062902e-05,0.00011716921313155832,-0.6216691916535492,-1.2456882366175721e-05,-4.1371600582271976e-07,1.1358758545396441e-05,1.11983354252636,1.1198360394748186,1.1199261822675932,1.1199350440776799,0.0,0.0,2.0
0.7000000000000001,1.258331140295605e-05,-0.0003374306429314822,1.552017661709288,-2.5884658318033846e-07,3.138670435862828e-05,0.9442129036532831,-8.362831858570126e-05,-3.9399102541076675e-06,-0.00014083684734163935,0.0008719471708907522,3.128667527316346e-05,7.088221906470884e-05,-0.6744310515218247,-2.0935872381816134e-05,-6.750679010895059e-07,1.286193641831283e-05,1.1066110954643598,1.1066123336025606,1.1067669478065192,1.1067785716047365,0.0,0.0,2.0
0.7500000000000001,1.2469887493581354e-05,-0.00033367019599357076,1.596101514420339,-2.2684781874939347e-06,7.52089387582287e-05,0.8816770542210195,-4.52622424874807e-05,-2.4909712933836355e-06,-0.000138988383468078,0.0007673174330730384,2.9086846012756475e-05,3.696625222321827e-05,-0.6909809422981069,-2.1043147233876615e-05,-7.282819766704881e-07,1.404719490693534e-05,1.1024731185296035,1.1024745399580056,1.1026293867238899,1.1026420124903946,0.0,0.0,2.0
0.8000000000000002,1.228922354599698e-05,-0.000328606450658364,1.6369002111408346,-3.613278951687454e-06,0.00010127490670413554,0.8159739344099126,-1.808986666895312e-05,-1.330067311661584e-06,-0.00013832945432557857,0.0005434442840779981,2.3293612283336047e-05,1.3177228113507112e-05,-0.6829996406259231,-1.6715501581119512e-05,-6.532023419857418e-07,1.4949950225457928e-05,1.1044845742819664,1.104487024623679,1.1046081304299598,1.1046206300384724,0.0,0.0,2.0
0.8500000000000002,1.2069134050682046e-05,-0.00032292184750856994,1.674398711737873,-4.401789906298696e-06,0.00011369206299588095,0.749970011940766,-2.004403013213952e-06,-4.997281074911671e-07,-0.0001384806088584469,0.0003217069728295224,1.6651285789138787e-05,-3.023518909312039e-06,-0.6589520702256941,-1.1518956372565538e-05,-5.262587973349053e-07,1.5631922295798222e-05,1.1105157948569442,1.1105195626734972,1.110600354069061,1.1106122181748042,0.0,0.0,2.0
0.9000000000000002,1.1830494129072107e-05,-0.00031705692093600353,1.7086776236810028,-4.772798432198782e-06,0.0001172985314513281,0.6855782388625986,5.7956349129620664e-06,3.4335038043641396e-08,-0.00013916547890396495,0.0001559992778799523,1.0702865887928941e-05,-1.3697478952181351e-05,-0.6249040408472817,-7.271177223694443e-06,-3.952872179762594e-07,1.6146786636008486e-05,1.1190435073607294,1.1190485400831398,1.119096398822312,1.1191075128865373,0.0,0.0,2.0
0.9500000000000003,1.1587543625636192e-05,-0.0003112514422699456,1.7398788263623413,-4.859010068718302e-06,0.00011610957332115822,0.6240240536267683,8.399031755158208e-06,3.359231151702602e-07,-0.0001401855389220509,5.206709692674058e-05,6.03900754346908e-06,-2.0401198583270077e-05,-0.5851561510528799,-4.40032312171125e-06,-2.8275552466071015e-07,1.6536207934754344e-05,1.1289909913863463,1.1289970844478163,1.1290226649832467,1.1290331081297111,0.0,0.0,2.0
1.0000000000000002,1.1349029853567561e-05,-0.00030560799156132686,1.7681809579346868,-4.770275441372615e-06,0.00011286901417237511,0.5660426314469102,8.154899216110718e-06,4.710879454099609e-07,-0.00014139977451860353,-4.8830296960626015e-06,2.702612101202789e-06,-2.428471357130608e-05,-0.5427183564421704,-2.6681815321957545e-06,-1.9530483699755542e-07,1.6831603912921443e-05,1.139606691924267,1.1396136053813235,1.1396257140526913,1.139635632199548,0.0,0.0,2.0
1.0500000000000003,1.1119559957945636e-05,-0.00030014758627789153,1.7937821383404327,-4.589397912438506e-06,0.0001092081056687066,0.5120236081149176,6.539028184771619e-06,4.960647655926604e-07,-0.0001427092913362935,-3.231749093803703e-05,4.9496672269803e-07,-2.6190351581838792e-05,-0.4996614225890221,-1.6842333412338703e-06,-1.317046847995391e-07,1.705647762106516e-05,1.150374408969276,1.1503819240951265,1.1503863514974024,1.1503958928491733,0.0,0.0,2.0
1.1000000000000003,1.0900842830617202e-05,-0.0002948481233780647,1.8168879715807962,-4.374342546568675e-06,0.00010598925799653637,0.46211666480727054,4.376405572186507e-06,4.5399668160064646e-07,-0.00014404587340737616,-4.32523317411307e-05,-8.475341980379612e-07,-2.673166288434165e-05,-0.45737612150463747,-1.1342670138191742e-06,-8.775719965210734e-08,1.7228376268500036e-05,1.1609476374920267,1.1609555766247792,1.1609556875675204,1.1609649768110366,0.0,0.0,2.0
1.1500000000000004,1.069269916218762e-05,-0.00028966745882962313,1.837703380625029,-4.162873368591645e-06,0.00010361329096883172,0.4163081808846547,2.1024275290639393e-06,3.757915987856467e-07,-0.0001453635327873462,-4.5479335088227344e-05,-1.5706527830935325e-06,-2.635320825440893e-05,-0.4167639096160747,-8.253687515298445e-07,-5.8791678796126464e-08,1.736039921493584e-05,1.171101734122821,1.1711099620787455,1.1711076308695345,1.171116763312825,0.0,0.0,2.0
1.2000000000000004,1.0493823857333109e-05,-0.0002845561997406235,1.8564272093159295,-3.977506097090213e-06,0.00010222518177999259,0.37447657381801225,-5.279993864437604e-08,2.8243240640629673e-07,-0.00014663228928169842,-4.3104277478313736e-05,-1.8734496573934874e-06,-2.5375146092109777e-05,-0.37837687229886574,-6.562104038576183e-07,-4.0699811060402545e-08,1.7462331703761172e-05,1.1806990489939237,1.1807074670843063,1.1807037836907917,1.1807128279321133,0.0,0.0,2.0
1.2500000000000004,1.0302331115691403e-05,-0.0002794646601492185,1.8732488081848326,-3.8298548328341166e-06,0.00010183079182810029,0.3364319773780622,-1.963438357070065e-06,1.8744803722595612e-07,-0.00014783360378652647,-3.821248940219739e-05,-1.9052905888594656e-06,-2.4026300894425746e-05,-0.3425201598357555,-5.764624024186768e-07,-3.022532312904711e-08,1.7541490932454666e-05,1.1896634737564846,1.1896720119994653,1.1896676755801714,1.1896766788281234,0.0,0.0,2.0
1.3000000000000005,1.0116126248441268e-05,-0.00027434677202022023,1.8883460301624015,-3.724097345002712e-06,0.00010235776257996507,0.3019444395513782,-3.561140891370753e-06,9.903988455630776e-08,-0.0001489570347845838,-3.1953788942924124e-05,-1.772886916518062e-06,-2.246862595463305e-05,-0.30932672524295673,-5.586948514016756e-07,-2.493068514176428e-08,1.7603355829276584e-05,1.1979618649112027,1.197970474814616,1.1979659707894046,1.1979749642418203,0.0,0.0,2.0
1.3500000000000005,9.93314708224707e-06,-0.0002691623682325511,1.9018842166594674,-3.659583323883947e-06,0.00010368807575338273,0.2707637299413168,-4.8146653548939325e-06,2.1740083352523835e-08,-0.00014999779821096563,-2.507025870534653e-05,-1.549730432651205e-06,-2.0815271012947344e-05,-0.2788116343311596,-5.844681841421386e-07,-2.3055020713996613e-08,1.7652035475716602e-05,1.2055905191269434,1.2055991677983682,1.2055948376897392,1.2056038410537904,0.0,0.0,2.0
1.4000000000000006,9.75151103038083e-06,-0.0002638784652041875,1.9140158685056499,-3.632721037324799e-06,0.00010567806056727179,0.24263303692364957,-5.719349409677365e-06,-4.236453484816962e-08,-0.00015095499357800697,-1.80934885810897e-05,-1.2848063619062794e-06,-1.914390773540568e-05,-0.25091133245396324,-6.39348023592719e-07,-2.335761623691644e-08,1.7690617472833964e-05,1.2125653750382666,1.2125740406730319,1.2125701134260154,1.2125791384087232,0.0,0.0,2.0
1.4500000000000006,9.569596079182535e-06,-0.00025846983125947336,1.9248807802610641,-3.638299023965902e-06,0.00010817267889428293,0.21729823510828528,-6.289490067908192e-06,-9.276046677221403e-08,-0.00015183032074537293,-1.1402660884345142e-05,-1.0096399385785958e-06,-1.7506542864729913e-05,-0.22551185316978486,-7.11794197389015e-07,-2.4981614654710875e-08,1.7721427070696226e-05,1.2189149647639295,1.2189236333111984,1.218920247937643,1.2189293008174449,0.0,0.0,2.0
1.5000000000000007,9.38607686831969e-06,-0.00025291901763250374,1.9346064782428687,-3.670384217256891e-06,0.00011101627253939234,0.1945139596360912,-6.551811668658632e-06,-1.2990236776126867e-07,-0.00015262715738364874,-5.2463191692029385e-06,-7.436345786715883e-07,-1.5936732278959876e-05,-0.2024689163015395,-7.93042764849748e-07,-2.734616188026539e-08,1.774621999679623e-05,1.2246753893826818,1.2246840521375886,1.2246812793565505,1.2246903628216403,0.0,0.0,2.0
1.5500000000000007,9.199931279760642e-06,-0.00024721600169197433,1.9433088480086416,-3.7229117711809787e-06,0.0001140603188105882,0.17404739531545754,-6.540032503095372e-06,-1.5480232651074142e-07,-0.0001533499010191505,2.3565931671944857e-07,-4.979632127780107e-07,-1.4454872740635609e-05,-0.18162209348980357,-8.76899505129698e-07,-3.006527169950861e-08,1.7766326002388654e-05,1.2298867779913047,1.2298954298829852,1.2298932921007926,1.2299024065351145,0.0,0.0,2.0
1.6000000000000008,9.010428497280518e-06,-0.00024135757639122288,1.9510928702948458,-3.790055649602469e-06,0.0001171685060150291,0.15568044572408457,-6.290756546408864e-06,-1.687572612437034e-07,-0.00015400350465890892,4.985561874866904e-06,-2.7833416251497686e-07,-1.3072073567032541e-05,-0.16280464910656695,-9.592949225503072e-07,-3.288857854862479e-08,1.778275579236101e-05,1.2345908289330871,1.2345994673219176,1.2345979551357333,1.2346070995026952,0.0,0.0,2.0
1.6500000000000008,8.817106170715224e-06,-0.0002353465971133188,1.9580534086953147,-3.866446531305895e-06,0.00012021958555808159,0.13921076800937904,-5.840669108899189e-06,-1.7317248667429577e-07,-0.0001545931535475078,9.001762242649478e-06,-8.691820671491807e-08,-1.1792979291400763e-05,-0.14585024195047036,-1.0377463688395269e-06,-3.565897833690738e-08,1.7796280697713608e-05,1.2388291362599368,1.2388377601004523,1.238836844624479,1.2388460170646616,0.0,0.0,2.0
1.7000000000000008,8.619741889465077e-06,-0.00022919116934986663,1.964276010033974,-3.947285625002939e-06,0.00012310855526904334,0.12445202677318523,-5.2248042159459826e-06,-1.694512106966977e-07,-0.00015512404441502925,1.2317286206202378e-05,7.632968857358598e-08,-1.0617819484033046e-05,-0.13059736034053587,-1.110869889503029e-06,-3.828275328077224e-08,1.7807492100252353e-05,1.2426420827067017,1.2426506919700342,1.2426503333769803,1.2426595316057483,0.0,0.0,2.0
1.7500000000000009,8.418322428086363e-06,-0.00022290383429804232,1.9698376911801234,-4.02838922757428e-06,0.00012574670103648628,0.11123362292298822,-4.475585509005891e-06,-1.5892860101423295e-07,-0.00015560123876415968,1.4984341312318383e-05,2.127766278263569e-07,-9.543889522597866e-06,-0.11689213174902398,-1.1780049497280437e-06,-4.070869685266221e-08,1.7816845788902643e-05,1.2460681386349397,1.2460767339140122,1.246076887067654,1.2460861086343704,0.0,0.0,2.0
1.800000000000001,8.213012996301695e-06,-0.00021650078827989473,1.9748076952631242,-4.10618863569336e-06,0.0001280609203629517,0.0994000816600149,-3.6223767335207017e-06,-1.4283550042194487e-07,-0.0001560295692946794,1.7064125220999288e-05,3.2451721478526757e-07,-8.566613323513081e-06,-0.10458997694330177,-1.2389534200920635e-06,-4.291365572915494e-08,1.7824695106023865e-05,1.2491434494374583,1.249152031679967,1.249152649743338,1.249161892195935,0.0,0.0,2.0
1.850000000000001,8.00412786886409e-06,-0.0002100011566580285,1.979248206820328,-4.177702548752082e-06,0.00012999263243732451,0.0888102311440786,-2.6913482680474365e-06,-1.2228152986076136e-07,-0.0001564135841251124,1.8620504942260965e-05,4.1398476561611015e-07,-7.680299269690089e-06,-0.09355645214765505,-1.2938071174476e-06,-4.4892567426283043e-08,1.7831315732083445e-05,1.2519016256166533,1.2519101959470778,1.2519112326516533,1.2519204936369612,0.0,0.0,2.0
1.900000000000001,7.792103182799301e-06,-0.00020342633271814068,1.9832150200626866,-4.240493721295787e-06,0.00013149647879775659,0.0793362648471696,-1.7055321252463172e-06,-9.82505813286886e-08,-0.00015675751763148205,1.9716247439504845e-05,4.837028654721483e-07,-6.8786725398540586e-06,-0.08366752940844738,-1.3428353445160529e-06,-4.6651629598131215e-08,1.7836924272283316e-05,1.2543736730948398,1.2543822326982867,1.2543836437388005,1.2543929210596263,0.0,0.0,2.0
1.950000000000001,7.577472292564616e-06,-0.00019679938541986865,1.986758157687402,-4.292617804693707e-06,0.0001325389459654405,0.07086275249430951,-6.849856955230579e-07,-7.160393523665399e-08,-0.00015706527972910255,2.0410844802445538e-05,5.361324817777277e-07,-6.155243959428127e-06,-0.07480949656269092,-1.386410626160771e-06,-4.8203664680713e-08,1.7841692197703904e-05,1.2565880184864262,1.2565965685351042,1.25659831238613,1.2566076040296494,0.0,0.0,2.0
2.000000000000001,7.360843812155036e-06,-0.00019014453577764605,1.989922439890266,-4.332569608191599e-06,0.00013309699284445213,0.06328564405727821,3.529852234266602e-07,-4.30878116491508e-08,-0.00015734045767994034,2.07593285450739e-05,5.735830485558098e-07,-5.503560504902582e-06,-0.06687860759706565,-1.4249587302609051e-06,-4.956500518114846e-08,1.7845756330973107e-05,1.2585705966857852,1.25857913829468,1.2585811766375163,1.2585904807849528,0.0,0.0,2.0
2.0500000000000007,7.142882306165462e-06,-0.00018348669907420733,1.992748004714814,-4.359230119791481e-06,0.00013315673406877424,0.05651129649096198,1.393575415753845e-06,-1.33432233945904e-08,-0.0001575863261631732,2.0811709988392792e-05,5.981662964560146e-07,-4.917370563094511e-06,-0.05978057701744453,-1.458924747205729e-06,-5.07534452739588e-08,1.7849226757958373e-05,1.2603449773954807,1.260353511597742,1.2603558094824183,1.260365124506915,0.0,0.0,2.0
2.1000000000000005,6.9242914906171645e-06,-0.0001768510885916721,1.9952707818289799,-4.371816310965946e-06,0.0001327122096507049,0.05045554228331639,2.424221667621734e-06,1.7083226684342334e-08,-0.0001578058625428152,2.0612828885563456e-05,6.117773091372449e-07,-4.390727869555083e-06,-0.05342998461805753,-1.4887504212482858e-06,-5.178690998475872e-08,1.785219280421703e-05,1.261932514014549,1.261941041750105,1.2619435675800204,1.2619528920372685,0.0,0.0,2.0
2.1500000000000004,6.7057997479814235e-06,-0.00017026287573233546,1.9975229223951558,-4.36983485271482e-06,0.00013176425718673256,0.04504281132351906,3.4343498850388114e-06,4.7728509591074244e-08,-0.00015800176517240662,2.020246737668679e-05,6.160937335826466e-07,-3.918052248312558e-06,-0.0477496371568076,-1.5148595754724683e-06,-5.268264784549385e-08,1.7854727578236807e-05,1.2633525032714896,1.2633610253841416,1.2633637507863176,1.2633730834012438,0.0,0.0,2.0
2.2,6.48814773511341e-06,-0.0001637469010739233,1.9995331880079132,-4.353040257360271e-06,0.00013031949316824306,0.04020531225514823,4.415136235473134e-06,7.820280992565768e-08,-0.00015817647318991084,1.9615630463972893e-05,6.125853185639699e-07,-3.4941594153730623e-06,-0.04266991896903501,-1.537649386553401e-06,-5.345675788264084e-08,1.7856891411616867e-05,1.2646223476017011,1.2646308648415772,1.2646337644680756,1.2646431041196113,0.0,0.0,2.0
2.25,6.272077856636226e-06,-0.00015732743090679957,2.0013273017965725,-4.321397569543684e-06,0.00012838940334247467,0.0358822757731847,5.359287046106934e-06,1.0817995046833558e-07,-0.00015833218678538367,1.888292114288432e-05,6.025296522492885e-07,-3.1142704341589784e-06,-0.038128153077544635,-1.5574857778023444e-06,-5.4123954730980924e-08,1.7858734516899093e-05,1.2657577148861268,1.265766227915272,1.2657692792078425,1.2657786249132144,0.0,0.0,2.0
2.3,6.0583253830022204e-06,-0.00015102795401917188,2.0029282647862616,-4.275049472680105e-06,0.00012598953775255393,0.03201925979378295,6.260839770400607e-06,1.3738873713557878e-07,-0.00015847088720182572,1.8030961766041396e-05,5.870306222982356e-07,-2.7740063795288505e-06,-0.03406798680846604,-1.5747017012094684e-06,-5.469748084488734e-08,1.7860299008328082e-05,1.266772692053053,1.2667812014527047,1.2667843843932096,1.2667937352925667,0.0,0.0,2.0
2.3499999999999996,5.847611006459016e-06,-0.00014487101384676773,2.004356640523848,-4.2142875308640955e-06,0.00012313880344808298,0.028567514751731693,7.1149854747259565e-06,1.6560527743236387e-07,-0.00015859435601818354,1.7082824442001854e-05,5.670379433906272e-07,-2.4693739813112198e-06,-0.030438810537506023,-1.5895972612546248e-06,-5.5189122141605557e-08,1.7861620471928916e-05,1.26767993039074,1.267688436669267,1.2676917335302715,1.2677010888722162,0.0,0.0,2.0
2.3999999999999995,5.6406346461921074e-06,-0.00013887807152460836,2.0056308108346412,-4.139527205338165e-06,0.00011985884644318738,0.025483406215860427,7.917912224232615e-06,1.9264622272312008e-07,-0.0001587041934298908,1.605844901735358e-05,5.433656920194858e-07,-2.196745575787361e-06,-0.02719521437551084,-1.6024410131608087e-06,-5.56092626828272e-08,1.7862729189663925e-05,1.2684907813709385,1.2684992849719743,1.2685026800767112,1.2685120392048654,0.0,0.0,2.0
2.4499999999999993,5.438070333147088e-06,-0.00013306939582518866,2.0067672054038828,-4.051286260900396e-06,0.00011617351398839396,0.022727891384830556,8.66666812744335e-06,2.1836293379006787e-07,-0.00015880183535592145,1.4975036248627765e-05,5.167108288866868e-07,-1.9528356366043574e-06,-0.024296484943161417,-1.6134719861289452e-06,-5.596700868391009e-08,1.7863651091760545e-05,1.2692154224476773,1.2692239237577718,1.2692274032551962,1.2692367655961934,0.0,0.0,2.0
2.499999999999999,5.2405620251175005e-06,-0.00012746397641413436,2.0077805076890503,-3.950166160591743e-06,0.00011210838822108612,0.02026604570334989,9.359042350143957e-06,2.426364365315377e-07,-0.00015888856929614184,1.3847407185873152e-05,4.876690546462615e-07,-1.7346757813884726e-06,-0.021706142560429867,-1.6229020453343591e-06,-5.62702928426538e-08,1.7864408506518062e-05,1.2698629727510256,1.2698714721068722,1.2698750237645064,1.269884388817166,0.0,0.0,2.0
2.549999999999999,5.0487202213239935e-06,-0.00012207945728093277,2.0086838394754376,-3.836836075870139e-06,0.00010769038266403167,0.018066635727747027,9.99346229023479e-06,2.653731240506283e-07,-0.0001589655489322463,1.2688326389658613e-05,4.5674978616657737e-07,-1.5395896440608256e-06,-0.019391517955971604,-1.6309183910538559e-06,-5.65260093363732e-08,1.786502076390103e-05,1.2704415989005018,1.2704500965954273,1.2704537096111304,1.270463076936969,0.0,0.0,2.0
2.5999999999999988,4.863119263448884e-06,-0.00011693208759860647,2.009488926195581,-3.7120191575021983e-06,0.00010294739364652612,0.016101734402864665,1.056890510609261e-05,2.8650108212635867e-07,-0.00015903380749115746,1.1508788999392407e-05,4.243886678307734e-07,-1.3651681246063416e-06,-0.017323366817760533,-1.6376860631185875e-06,-5.674012294452412e-08,1.7865504676041482e-05,1.2709586113580829,1.2709671076479363,1.2709707724806993,1.2709801416955215,0.0,0.0,2.0
2.6499999999999986,4.684295225621476e-06,-0.00011203668762686481,2.01020624494757,-3.5764807565481553e-06,9.790799943483307e-05,0.014346375039782089,1.1084821836959842e-05,3.0596698978267815e-07,-0.00015909426990813965,1.0318272572111983e-05,3.9095911223813427e-07,-1.2092453838550264e-06,-0.01547552003322944,-1.6433503476147028e-06,-5.691779341069189e-08,1.786587491390932e-05,1.2714205518592943,1.271429046967571,1.2714327551866345,1.2714421259532713,0.0,0.0,2.0
2.6999999999999984,4.512744310044197e-06,-0.00010740662759676727,2.0108451569710537,-3.4310183115455696e-06,9.260120060195078e-05,0.01277824046967524,1.1541072476054812e-05,3.2373350037098565e-07,-0.00015914776388339079,9.124956135416876e-06,3.5678194451021983e-07,-1.0698767133990466e-06,-0.013824567210162245,-1.6480390363747937e-06,-5.706348034533363e-08,1.7866144337043414e-05,1.2718332725246213,1.271841766646941,1.2718455107981292,1.2718548828201468,0.0,0.0,2.0
2.7499999999999982,4.348921677526144e-06,-0.00010305381780069495,2.0114140261745335,-3.2764526503610587e-06,8.705619592144645e-05,0.011377384069595209,1.193787048943543e-05,3.3977702101081146e-07,-0.000159195029875411,7.935909101302343e-06,3.2213339905904665e-07,-9.453172715185873e-07,-0.01234957096654507,-1.6518645049221946e-06,-5.718102965961679e-08,1.786632423976713e-05,1.2722020072793223,1.2722105005873676,1.2722142740752858,1.27222364709148,0.0,0.0,2.0
2.799999999999998,4.193240652578408e-06,-9.89887083621894e-05,2.0119203251542017,-3.1136204989547304e-06,8.130218877011098e-05,0.010125979593365031,1.2275735417759991e-05,3.540858579629313e-07,-0.00015923673013756956,6.757252922951271e-06,2.8725246375911635e-07,-8.340029473780851e-07,-0.01103180947953808,-1.654925591793056e-06,-5.727376892938274e-08,1.7866424577621902e-05,1.2725314362092677,1.2725399288541035,1.2725437258386743,1.2725530996184165,0.0,0.0,2.0
2.849999999999998,4.0460722521422675e-06,-9.522029737705852e-05,2.012370730003264,-2.9433680087228084e-06,7.536821970261756e-05,0.009008096981242275,1.2555452397980142e-05,3.6665864797840214e-07,-0.0001592734568491616,5.594299492477396e-06,2.523466214638129e-07,-7.345322510884316e-07,-0.00985454484999257,-1.6573093104574983e-06,-5.734457719497537e-08,1.7866454134509245e-05,1.2728257434634556,1.2728342355783908,1.272838050884481,1.2728474252236806,0.0,0.0,2.0
2.8999999999999977,3.907744994818041e-06,-9.17561463047025e-05,2.0127712050813065,-2.7665451464845306e-06,6.92830214471204e-05,0.008009501560852783,1.2778037507730163e-05,3.775030430696345e-07,-0.00015930573944182246,4.451667594048892e-06,2.1759693706828327e-07,-6.456502210413392e-07,-0.0088028149553121,-1.6590923491719754e-06,-5.739595496073951e-08,1.7866420682533843e-05,1.2730886692852543,1.2730971609882498,1.2731009900267485,1.2731103647444355,0.0,0.0,2.0
2.9499999999999975,3.778544954337192e-06,-8.860240164875587e-05,2.0131270787952933,-2.584000809616977e-06,6.307489311893269e-05,0.007117474279736413,1.2944708030628659e-05,3.8663458194046143e-07,-0.00015933405118424997,3.3333813215405587e-06,1.831618065148333e-07,-5.662335902213389e-07,-0.007863246599446441,-1.6603424061006657e-06,-5.743006873283044e-08,1.7866331110469566e-05,1.2733235567199095,1.2733320481157053,1.2733358868148124,1.273345261750127,0.0,0.0,2.0
2.9999999999999973,3.6587160261677635e-06,-8.5763822102128e-05,2.013443111336648,-2.3965785633885725e-06,5.677159093255734e-05,0.006320650827094099,1.3056856864559997e-05,3.940757555768902e-07,-0.00015935881508596567,2.2429529375082234e-06,1.4918085339891296e-07,-4.952771671209728e-07,-0.007023887923192404,-1.6611193738131397e-06,-5.7448815151873257e-08,1.786619152582739e-05,1.2735333935076334,1.2735418846894337,1.2735457294350077,1.2735551044447335,0.0,0.0,2.0
3.049999999999997,3.548460381147436e-06,-8.324381044679256e-05,2.0137235552218695,-2.2051129004065496e-06,5.040023310670877e-05,0.005608877704430526,1.3116030386756736e-05,3.998551996641266e-07,-0.00015938040919994122,1.183452008800236e-06,1.1577747672387592e-07,-4.3188181313859374e-07,-0.00627405819365448,-1.661476374725193e-06,-5.745385482019502e-08,1.7866007355141166e-05,1.2737208496323633,1.2737293406833115,1.2737331882671319,1.273742563223539,0.0,0.0,2.0
3.099999999999997,3.447939083916597e-06,-8.104444959620226e-05,2.01397220939649,-2.0104259446167826e-06,4.398721701180609e-05,0.00497308349240555,1.3123909166669632e-05,4.0400700644172733e-07,-0.00015939917137060915,1.5756236192330554e-07,8.306124896059077e-08,-3.7524335035166557e-07,-0.005604213247531367,-1.6614606457562132e-06,-5.7446650921633606e-08,1.786578342033659e-05,1.2738883109576664,1.273896801952062,1.2739006495268577,1.2739100243158827,0.0,0.0,2.0
3.149999999999997,3.3572728571229648e-06,-7.916654224877837e-05,2.0141924675832152,-1.813324535872642e-06,3.755814694847778e-05,0.004405163734508832,1.3082291067655927e-05,4.065701178435001e-07,-0.00015941540349464966,-8.323701408562123e-07,5.112954957485356e-08,-3.24642817093947e-07,-0.005005825015829871,-1.6611143255858282e-06,-5.7428491254490186e-08,1.7865524015865997e-05,1.274037909342599,1.2740464003469818,1.2740502453874785,1.2740596199071115,0.0,0.0,2.0
3.1999999999999966,3.2765429747845004e-06,-7.760965368905422e-05,2.0143873614839425,-1.6145976467692862e-06,3.1137771194483094e-05,0.0038978780145448866,1.2993076330091386e-05,4.075878230491492e-07,-0.0001594293753250292,-1.7842979733760273e-06,2.0069659787856053e-08,-2.794373330438708e-07,-0.004471273695993649,-1.6604751432640218e-06,-5.740053222921339e-08,1.7865232959714574e-05,1.2741715495961807,1.2741800406701052,1.2741838809393429,1.274193255098378,0.0,0.0,2.0
3.2499999999999964,3.2057922707266153e-06,-7.637215732957964e-05,2.014559599381483,-1.415014081157702e-06,2.4749927189491488e-05,0.0034447579508078974,1.2858254229502973e-05,4.0710728609663455e-07,-0.00015944132788684844,-2.6964404452652494e-06,-1.00406309917936e-08,-2.390523354498405e-07,-0.003993751278393277,-1.6595769758912247e-06,-5.7363800629088285e-08,1.7864913657220434e-05,1.2742909335936212,1.2742994247904447,1.2743032583103537,1.2743126320271871,0.0,0.0,2.0
3.2999999999999963,3.145026249616091e-06,-7.54512826327247e-05,2.014711600629389,-1.2153204222104892e-06,1.841749393709886e-05,0.0030400249581230554,1.2679891107331874e-05,4.051791462056303e-07,-0.0001594514765251502,-3.5672562495752897e-06,-3.913156638828156e-08,-2.0297421834479688e-07,-0.0035671752519306765,-1.6584503806980116e-06,-5.7319226319695504e-08,1.7864569140222388e-05,1.2743975818479847,1.2744060732154294,1.27440989824148,1.2744192714431757,0.0,0.0,2.0
3.349999999999996,3.094214289454408e-06,-7.484316509066714e-05,2.014845526466825,-1.0162392032336537e-06,1.2162350841151076e-05,0.0026785167487197725,1.2460119474618715e-05,4.018571479826694e-07,-0.00015946001363775664,-4.395422004435991e-06,-6.714082183813078e-08,-1.707440331444058e-07,-0.0031861114336883267,-1.6571230192377579e-06,-5.7267651557557087e-08,1.7864202114505722e-05,1.2744928528011736,1.2745013443818345,1.274505159380925,1.274514532002379,0.0,0.0,2.0
3.399999999999996,3.0532909258134964e-06,-7.454289797347475e-05,2.014963307549269,-8.184672728182353e-07,6.005342343847993e-06,0.002355621648879591,1.2201127997819155e-05,3.971978023016873e-07,-0.00015946711111434163,-5.179814610549298e-06,-9.401288811956856e-08,-1.4195161335860122e-07,-0.0028457049708761617,-1.6556200223870863e-06,-5.720984286009571e-08,1.786381499176051e-05,1.2745779600720732,1.274586451903855,1.274590255534993,1.274599627518203,0.0,0.0,2.0
3.4499999999999957,3.022157208725285e-06,-7.454458558111564e-05,2.015066668544459,-6.226743417642304e-07,-3.3752152817979365e-08,0.002067219903798545,1.1905152226750875e-05,3.9126007987060004e-07,-0.00015947292251943004,-5.919496408670407e-06,-1.1969841513088797e-07,-1.1623045312551985e-07,-0.0025416186574673053,-1.6539643146319176e-06,-5.714650635925705e-08,1.7863409923808116e-05,1.2746539878761975,1.274662479992649,1.274666271090107,1.2746756423835794,0.0,0.0,2.0
3.4999999999999956,3.0006821241478325e-06,-7.484139775667575e-05,2.015157150105998,-4.295016915490478e-07,-5.936243511202148e-06,0.001809631230784703,1.157446593244327e-05,3.8410512361769015e-07,-0.00015947758504152948,-6.613702981617318e-06,-1.4415383342949e-07,-9.325302984887324e-08,-0.002269977798887546,-1.652176890949467e-06,-5.7078296057928376e-08,1.7862988828868507e-05,1.2747219048084755,1.2747303972390738,1.2747341747976668,1.274743545355897,0.0,0.0,2.0
3.5499999999999954,2.9887040724594864e-06,-7.542562543603982e-05,2.015236128503884,-2.395610337669229e-07,-1.1684553587281408e-05,0.0015795679577124133,1.1211372930155056e-05,3.757959651425749e-07,-0.00015948122124325557,-7.261833450927487e-06,-1.6734127128661977e-07,-7.27268240501745e-08,-0.0020273209343506446,-1.650277039755507e-06,-5.700581310012101e-08,1.7862553424162593e-05,1.2747825761618001,1.2747910689322577,1.274794832094313,1.2748042018772794,0.0,0.0,2.0
3.599999999999995,2.986032396837302e-06,-7.628873702372207e-05,2.0153048331615517,-5.343351244369005e-08,-1.7262231753644905e-05,0.0013740931533590128,1.0818199337213591e-05,3.663972751016643e-07,-0.0001594839406094532,-7.863441780536796e-06,-1.892278745170843e-07,-5.4390279260964596e-08,-0.001810555797616402,-1.64828255137846e-06,-5.692962518082852e-08,1.786210523343174e-05,1.27483677493611,1.2748452680685327,1.2748490161124653,1.2748583850852757,0.0,0.0,2.0
3.649999999999995,2.9924489548425647e-06,-7.742143539677079e-05,2.015364362322528,1.283311601052562e-07,-2.265396746097448e-05,0.0011905832195235888,1.0397286163587247e-05,3.559751027946594e-07,-0.00015948584095448761,-8.418230122084418e-06,-2.0978602131455245e-07,-3.800998539979363e-08,-0.0016169199634292405,-1.6462098720358528e-06,-5.6850257896965826e-08,1.786164562891067e-05,1.2748851916761426,1.2748936851892811,1.2748974175193284,1.274906785651819,0.0,0.0,2.0
3.699999999999995,3.0077097267833004e-06,-7.881371534885516e-05,2.015415697046028,3.0521543881471477e-07,-2.784559904168743e-05,0.0010266944700010328,9.950982240190691e-06,3.445966525811136e-07,-0.00015948700965245636,-8.926042060376113e-06,-2.2899258450086524e-07,-2.3377137152538698e-08,-0.0014439456821024599,-1.6440742667756936e-06,-5.6768216981492716e-08,1.786117582370882e-05,1.27492844326225,1.27493693717157,1.274940653308787,1.2749500205752908,0.0,0.0,2.0
3.7499999999999947,3.0315464550039702e-06,-8.045492129563216e-05,2.015459713709654,4.7673456441339575e-07,-3.282411893554e-05,0.0008803332725193513,9.481637384276046e-06,3.3233003174310393e-07,-0.00015948752476204291,-9.386857871575944e-06,-2.468295017842476e-07,-1.0305426775939917e-08,-0.0012894284590359573,-1.6418899193522523e-06,-5.668396864751263e-08,1.7860696911276506e-05,1.2749670807650488,1.2749755750829765,1.2749792746569775,1.2749886410359614,0.0,0.0,2.0
3.7999999999999945,3.063668308004826e-06,-8.233380506981154e-05,2.015497195178356,6.424370600171195e-07,-3.7577675483587585e-05,0.0007496293740416604,8.991595820234033e-06,3.192440367396593e-07,-0.00015948745601037447,-9.800789415132622e-06,-2.6328300705446794e-07,1.3717758749105606e-09,-0.0011513989808489417,-1.6396700404550453e-06,-5.659796230088513e-08,1.7860209859822095e-05,1.2750015964635608,1.2750100911995497,1.275013773941085,1.2750231394149556,0.0,0.0,2.0
3.8499999999999943,3.103763563730827e-06,-8.443858364101226e-05,2.0155288407818848,8.019051145200185e-07,-4.209557142401441e-05,0.0006329120705750313,8.483189839980012e-06,3.0540792389749845e-07,-0.00015948686568795245,-1.0168075342032011e-05,-2.783439408443565e-07,1.1803201919043923e-08,-0.001028098032939108,-1.6374269621386563e-06,-5.65106192441772e-08,1.785971553952018e-05,1.275032430115408,1.2750409252761064,1.2750445910103532,1.275053955565194,0.0,0.0,2.0
3.899999999999994,3.1515013065800334e-06,-8.675699660186514e-05,2.015555275227803,9.547548569841264e-07,-4.636825921705757e-05,0.0005286889183686583,7.958733663792556e-06,2.908912014010122e-07,-0.00015948580943950168,-1.0489077085816389e-05,-2.920073236639236e-07,2.112176511273744e-08,-0.0009179540902156252,-1.6351722005178668e-06,-5.642234439006193e-08,1.7859214725622397e-05,1.2750599745589335,1.2750684701482624,1.2750721187885958,1.2750814824139927,0.0,0.0,2.0
3.949999999999994,3.206533132668753e-06,-8.927636326744356e-05,2.015577056563589,1.1006365217743888e-06,-5.038733331156828e-05,0.00043562671571351075,7.420517526804532e-06,2.757634168224935e-07,-0.00015948433696977995,-1.0764274349521802e-05,-3.042724444396114e-07,2.9446262726553795e-08,-0.0008195632966808489,-1.6329165264703645e-06,-5.633352157336361e-08,1.785870810767628e-05,1.275084580718015,1.2750930767372874,1.2750967082795908,1.275106070968426,0.0,0.0,2.0
3.999999999999994,3.268494858273759e-06,-9.198363924062073e-05,2.0155946832892537,1.239234512100119e-06,-5.414551946354343e-05,0.00035253451329708696,6.870801955453471e-06,2.6009394619081383e-07,-0.0001594824926844402,-1.0994261306496843e-05,-3.151428291081354e-07,3.688267448518565e-08,-0.0007316715794824166,-1.6306700045281563e-06,-5.624451177048282e-08,1.785819630797067e-05,1.275106562073388,1.2751150585214517,1.2751186730387167,1.2751280347869614,0.0,0.0,2.0
4.049999999999994,3.337008226126841e-06,-9.486547230115433e-05,2.0156086007110954,1.370267357061644e-06,-5.763666121067206e-05,0.0002783484368329425,6.311812266089522e-06,2.439518069117204e-07,-0.00015948031624990545,-1.1179742157329479e-05,-3.2462576284869e-07,4.3525782399474216e-08,-0.000653158670074809,-1.6284420424816473e-06,-5.6155665852576466e-08,1.7857679877738995e-05,1.275126198657217,1.2751346955304959,1.2751382931678066,1.2751476539744058,0.0,0.0,2.0
4.099999999999993,3.411682604876472e-06,-9.790825748144281e-05,2.0156192066175356,1.493487574992617e-06,-6.085570360576958e-05,0.00021211812880395087,5.745733279631919e-06,2.2740545956826394e-07,-0.00015947784309845646,-1.132152680884148e-05,-3.327325117679534e-07,4.946026654973986e-08,-0.000583023829525034,-1.626241428015877e-06,-5.6067314853698894e-08,1.7857159308739498e-05,1.2751437406215873,1.2751522379142044,1.2751558188839962,1.2751651787506877,0.0,0.0,2.0
4.149999999999993,3.492116676785888e-06,-0.00010109819119753373,2.0156268563493667,1.6086814381883244e-06,-6.379867432181844e-05,0.00015299463662188373,5.174704252108569e-06,2.10522612701321e-07,-0.00015947510488436033,-1.142052655643609e-05,-3.394782625896732e-07,5.476168430163319e-08,-0.0005203730963011036,-1.624076355492016e-06,-5.5979767945513674e-08,1.7856635044137942e-05,1.2751594114264422,1.275167909130365,1.2751714737078852,1.2751808326390068,0.0,0.0,2.0
4.199999999999993,3.5779001089917655e-06,-0.0001044213243091058,2.015631867329012,1.7156686441175484e-06,-6.646266223144133e-05,0.00010021959290895666,4.600814048669728e-06,1.9337005477100248e-07,-0.0001594721298820481,-1.1477749214703756e-05,-3.4488157824333473e-07,5.9497629381410153e-08,-0.0004644078941116736,-1.6219544614247364e-06,-5.5893326334868574e-08,1.7856107475517303e-05,1.2751734106875454,1.2751819087926188,1.2751854573116614,1.2751948153140633,0.0,0.0,2.0
4.249999999999993,3.6686152038365777e-06,-0.00010786361398804038,2.015634523106523,1.8143018968962437e-06,-6.884579357869158e-05,5.311555021592085e-05,4.026096531651681e-06,1.760134733332819e-07,-0.0001594689433480459,-1.1494294836382377e-05,-3.489646528623788e-07,6.37284568567667e-08,-0.00041441485527408256,-1.619882832039086e-06,-5.580827146687568e-08,1.7855576953648134e-05,1.2751859167205564,1.2751944152146373,1.27519794806333,1.275207305146203,0.0,0.0,2.0
4.299999999999993,3.763838523988619e-06,-0.00011141097428063346,2.015635076973861,1.9044664030408282e-06,-7.094720585186162e-05,1.1077346764309937e-05,3.452526206934529e-06,1.5851728352182546e-07,-0.00015946556784826853,-1.1471350546504167e-05,-3.517531248438215e-07,6.75079758983863e-08,-0.00036975672909172336,-1.617868030258883e-06,-5.572486621679713e-08,1.785504379670262e-05,1.2751970888138395,1.2752055876829205,1.2752091052997165,1.275218461474432,0.0,0.0,2.0
4.3499999999999925,3.86314248811596e-06,-0.00011504932525446358,2.015633755193538,1.986079282546817e-06,-7.276701947660252e-05,-2.643560645942955e-05,2.882014124931241e-06,1.4094447638251185e-07,-0.00015946202353818708,-1.1410185449835444e-05,-3.532756789718273e-07,7.088439238919132e-08,-0.00032986426055699875,-1.6159161134041433e-06,-5.564336320478119e-08,1.7854508282934898e-05,1.275207069258751,1.2752155684870214,1.2752190713568294,1.2752284266368414,0.0,0.0,2.0
4.399999999999992,3.966096933096831e-06,-0.00011876464062714831,2.015630759882753,2.0590888996174192e-06,-7.430630745369456e-05,-5.990621570362009e-05,2.3164040444216685e-06,1.2335646307915207e-07,-0.00015945832841884989,-1.1312145373963717e-05,-3.535641281462305e-07,7.390079184424599e-08,-0.0002942289353823485,-1.6140326493697274e-06,-5.55639976143585e-08,1.7853970659527693e-05,1.2752159851632907,1.2752244847332541,1.2752279733836889,1.2752373277843847,0.0,0.0,2.0
4.449999999999992,4.072270639039746e-06,-0.00012254299378056593,2.0156262715897935,2.1234741188583023e-06,-7.556706306835237e-05,-8.97658591902939e-05,1.7574688288676844e-06,1.0581292440976115e-07,-0.0001594544985784172,-1.1178648219692599e-05,-3.526533064224237e-07,7.659542918877042e-08,-0.0002623964994325975,-1.6122227057559467e-06,-5.5486985126746276e-08,1.785343115774517e-05,1.275223950072273,1.2752324499648895,1.275235924962432,1.2752452785009731,0.0,0.0,2.0
4.499999999999992,4.18123281342139e-06,-0.00012637060207017282,2.015620451595516,2.179243487632875e-06,-7.655216579213785e-05,-0.00011639988555245395,1.2069071797382264e-06,8.837168150130521e-08,-0.0001594505483807403,-1.101117722091215e-05,-3.5058064436076236e-07,7.900278792445048e-08,-0.0002339611683420187,-1.610490901400035e-06,-5.5412530227521345e-08,1.7852889970572035e-05,1.2752310654147636,1.2752395656095166,1.2752430275560802,1.275252380251298,0.0,0.0,2.0
4.549999999999992,4.292554530842959e-06,-0.00013023386934603957,2.0156134439692632,2.226434348431383e-06,-7.726534551733498e-05,-0.0001401525250521729,6.663406001500439e-07,7.108856593099852e-08,-0.00015944649066282262,-1.0811276338282523e-05,-3.4738617975546175e-07,8.115340247297348e-08,-0.00020856045655173738,-1.6088413859990712e-06,-5.534082063048367e-08,1.785234728211908e-05,1.2752374217968672,1.275245922271888,1.275249371801216,1.2752587236734774,0.0,0.0,2.0
4.599999999999992,4.405810125331647e-06,-0.00013411942660916386,2.0156053774054064,2.2651118897737586e-06,-7.771114526248569e-05,-0.00016133127713757744,1.3731065155274396e-07,5.4017301370653055e-08,-0.00015944233688792932,-1.058054439838546e-05,-3.4311232623469094e-07,8.30747452617972e-08,-0.00018587055699346988,-1.6072778540262635e-06,-5.5272028978152015e-08,1.7851803248354172e-05,1.2752431001567666,1.2752516008889367,1.2752550386631127,1.2752643897341907,0.0,0.0,2.0
4.6499999999999915,4.5205785321452645e-06,-0.00013801417073296373,2.0155963668639156,2.295368136272352e-06,-7.789488247599756e-05,-0.00018021082981434233,-3.7872348283108885e-07,3.720939097979607e-08,-0.00015943809730002985,-1.0320628958641189e-05,-3.3780375730314207e-07,8.479120006879524e-08,-0.0001656022137880367,-1.605803565618292e-06,-5.520631070394114e-08,1.7851258015491746e-05,1.2752481727964533,1.2752566737615327,1.275260100467645,1.2752694507605813,0.0,0.0,2.0
4.699999999999991,4.6364445762154506e-06,-0.00014190530118719322,2.0155865150358863,2.317320881403722e-06,-7.782260908458969e-05,-0.00019703656058744912,-8.803871502914402e-07,2.0714026425560448e-08,-0.0001594337810457121,-1.0033220621891028e-05,-3.3150697289712474e-07,8.632471262358617e-08,-0.0001474970360399036,-1.6044213515306163e-06,-5.514381231315598e-08,1.7850711706938053e-05,1.275252704303297,1.2752612054759789,1.2752646218228296,1.2752739713618548,0.0,0.0,2.0
4.749999999999991,4.75300020482447e-06,-0.00014578035470885943,2.0155759136526794,2.33111257218039e-06,-7.750107043332421e-05,-0.00021202766413708218,-1.3663920881518093e-06,4.577981780283835e-09,-0.00015942939629870524,-9.720047181057198e-06,-3.242706008942748e-07,8.769473841635907e-08,-0.00013132420403837858,-1.6031336218633811e-06,-5.50846556472193e-08,1.7850164439378354e-05,1.2752567523733953,1.2752652537274947,1.2752686604423662,1.2752780092527058,0.0,0.0,2.0
4.799999999999991,4.869845662084727e-06,-0.00014962723787155784,2.0155646446553757,2.336909145205143e-06,-7.693766325396825e-05,-0.00022537994607496614,-1.8355379916320097e-06,-1.115446051861291e-08,-0.0001594249503600905,-9.382867786082406e-06,-3.161447549361147e-07,8.891872899007165e-08,-0.0001168775274838843,-1.6019423733960636e-06,-5.502895204135311e-08,1.784961631403666e-05,1.2752603685470454,1.2752688700555714,1.275272267881056,1.2752816159888438,0.0,0.0,2.0
4.849999999999991,4.986590603025369e-06,-0.0001534342575119583,2.015552781239444,2.33489881881284e-06,-7.614039280800914e-05,-0.00023726831863690734,-2.28671379344096e-06,-2.6441576182128915e-08,-0.00015942044975140521,-9.023467178553823e-06,-3.0718088297496875e-07,9.001227403527645e-08,-0.00010397281749361525,-1.6008491946345024e-06,-5.4976801773472274e-08,1.7849067421268988e-05,1.275263598865722,1.2752721005009573,1.2752754901918208,1.275284837624007,0.0,0.0,2.0
4.899999999999991,5.10285514557756e-06,-0.00015719014897914624,2.0155403887879397,2.3252908510438098e-06,-7.51178293437589e-05,-0.0002478490300816816,-2.7188986250135215e-06,-4.1244271825731523e-08,-0.00015941590029758937,-8.64364932456421e-06,-2.9743189110867757e-07,9.09893045733198e-08,-9.244553902209435e-05,-1.5998552919038816e-06,-5.492828393853097e-08,1.7848517841511428e-05,1.2752664844588304,1.2752749861924901,1.275278368512738,1.2752877152969198,0.0,0.0,2.0
4.94999999999999,5.218270858813975e-06,-0.00016088410218003112,2.0155275257051253,2.308314264728314e-06,-7.38790640176975e-05,-0.00025726165628903175,-3.131162509460431e-06,-5.552613876188965e-08,-0.00015941130720554647,-8.245232049034506e-06,-2.8695176345413915e-07,9.186218065669919e-08,-8.214871347093922e-05,-1.5989614854358815e-06,-5.488346208919542e-08,1.7847967650477694e-05,1.2752690620680915,1.275277563871439,1.275280939591348,1.275290285755651,0.0,0.0,2.0
4.99999999999999,5.33248168587244e-06,-0.00016450578540108982,2.0155142441611407,2.284216541169297e-06,-7.243366442117411e-05,-0.00026563087969222465,-3.522666754256479e-06,-6.925348239157282e-08,-0.00015940667512272006,-7.830041030556332e-06,-2.7579507316886305e-07,9.264209105979272e-08,-7.295104561633875e-05,-1.5981682277826568e-06,-5.484239448664658e-08,1.7847416909311446e-05,1.275271364515779,1.2752798663596607,1.275283236252958,1.275292581825986,0.0,0.0,2.0
5.04999999999999,5.445144800537383e-06,-0.00016804536689376024,2.015500590757215,2.2532622932988497e-06,-7.079162985340831e-05,-0.00027306807851346093,-3.892664071092993e-06,-8.23953720455032e-08,-0.00015940200820466227,-7.399904344613622e-06,-2.6401739057591275e-07,9.333887340943028e-08,-6.473524999988517e-05,-1.5974756079380677e-06,-5.480511516887679e-08,1.7846865679536645e-05,1.2752734211230312,1.2752819229780619,1.2752852878191294,1.2752946328297783,0.0,0.0,2.0
5.09999999999999,5.555931396592299e-06,-0.00017149353421773498,2.015486607119897,2.2157319210983294e-06,-6.896334647949484e-05,-0.00027967274635720685,-4.2404984005743675e-06,-9.492365088085332e-08,-0.00015939731016123077,-6.956646560590307e-06,-2.516744833319331e-07,9.39614416348876e-08,-5.739655609895977e-05,-1.5968833736400516e-06,-5.477165360342009e-08,1.784631401068401e-05,1.2752752580835496,1.2752837599201425,1.2752871204813958,1.2752964649588134,0.0,0.0,2.0
5.14999999999999,5.664527409172265e-06,-0.00017484151134329858,2.0154723304318773,2.1719202515993124e-06,-6.695954251127202e-05,-0.00028553376039575085,-4.565604478844534e-06,-1.0681296200768373e-07,-0.0001593925843064483,-6.502083580317844e-06,-2.388226401994091e-07,9.451771268678732e-08,-5.0841372802479246e-05,-1.5963909344457037e-06,-5.47420188913519e-08,1.7845761948882772e-05,1.2752768987974061,1.2752854005859278,1.2752887576352183,1.2752981016086458,0.0,0.0,2.0
5.1999999999999895,5.770634167700561e-06,-0.00017808107352085102,2.0154577939061697,2.1221351705659204e-06,-6.479124355104871e-05,-0.00029073051415196005,-4.8675071396454376e-06,-1.1804075143273262e-07,-0.00015938783360364283,-6.0380173467894e-06,-2.2551820655075011e-07,9.501470090491508e-08,-4.4986095621042665e-05,-1.595997373085256e-06,-5.471620867042484e-08,1.7845209538041872e-05,1.275278364169232,1.2752868658800878,1.2752902201781888,1.2752995636768707,0.0,0.0,2.0
5.249999999999989,5.8739689800991136e-06,-0.00018120455993172544,2.0154430272096984,2.0666962479710543e-06,-6.246972821748837e-05,-0.0002953339294275992,-5.145820344592585e-06,-1.2858726669494535e-07,-0.00015938306069876378,-5.566230408514591e-06,-2.1181749733729686e-07,9.545875450568183e-08,-3.975604115115383e-05,-1.5957014672757689e-06,-5.469420656953943e-08,1.7844656813873042e-05,1.275279672874506,1.275288174478247,1.2752915267765117,1.2753008698295842,0.0,0.0,2.0
5.299999999999989,5.974265648194533e-06,-0.00018420488414140173,2.015428056841682,2.00593336190838e-06,-6.000648419352591e-05,-0.0002994073603268532,-5.400245960484762e-06,-1.3843553675832067e-07,-0.00015937826795402925,-5.08848086026355e-06,-1.9777642143002656e-07,9.585554890375649e-08,-3.5084494972692504e-05,-1.5955017061816416e-06,-5.4675989253332294e-08,1.784410380793295e-05,1.2752808415975476,1.275289343064919,1.2752926941030625,1.275302036739499,0.0,0.0,2.0
5.349999999999989,6.071274914704494e-06,-0.0001870755423823397,2.0154129064716435,1.9401853301992344e-06,-5.741316481875942e-05,-0.00030300740077038313,-5.630572324117653e-06,-1.475713589160215e-07,-0.00015937345748190656,-4.606498093121515e-06,-1.834506211683526e-07,9.621008007409012e-08,-3.091186130946971e-05,-1.5953962862028454e-06,-5.466151701053002e-08,1.784355055170096e-05,1.2752818852440764,1.2752903865461445,1.275293737049993,1.2753030792984767,0.0,0.0,2.0
5.399999999999989,6.164764842152208e-06,-0.0001898106196994189,2.015397597241356,1.8697985489542822e-06,-5.4701546341583834e-05,-0.00030618460574949324,-5.83667254608231e-06,-1.5598326439895668e-07,-0.00015936863116926568,-4.121977574254583e-06,-1.6889504561861186e-07,9.652686104490591e-08,-2.7184903712881847e-05,-1.5953831443617272e-06,-5.465074243886509e-08,1.7842997071217965e-05,1.2752828171309507,1.2752913182391596,1.2752946689186575,1.2753040108075195,0.0,0.0,2.0
5.449999999999989,6.254521124300094e-06,-0.00019240479399679382,2.0153821480345653,1.7951256429577033e-06,-5.188348594749846e-05,-0.00030898413581503803,-6.0185026216079386e-06,-1.6366249765541e-07,-0.00015936379070247454,-3.6365769877529645e-06,-1.5416422338110508e-07,9.68099030168538e-08,-2.3856066158782496e-05,-1.595459955436364e-06,-5.4643596654413446e-08,1.78424433906717e-05,1.2752836491558484,1.2752921500421845,1.2752955015893772,1.2753048431464313,0.0,0.0,2.0
5.4999999999999885,6.340347330817445e-06,-0.0001948533380305102,2.0153665757179353,1.7165241303470257e-06,-4.8970880674327586e-05,-0.00031144633259927446,-6.176099298873018e-06,-1.7060295179612663e-07,-0.00015935893758938673,-3.151911384135544e-06,-1.3931138512741598e-07,9.706277756854459e-08,-2.088286718546911e-05,-1.5956241681876608e-06,-5.464001300350376e-08,1.7841889532305478e-05,1.2752843919486851,1.275292892585659,1.2752962456729562,1.2753055869255143,0.0,0.0,2.0
5.549999999999988,6.422065086223548e-06,-0.00019715211939641146,2.015350895356281,1.6343551081220576e-06,-4.597562731802518e-05,-0.00031360723308893057,-6.309577778563958e-06,-1.768011225935266e-07,-0.00015935407317327701,-2.6695498052432862e-06,-1.2438883414647682e-07,9.728877760434758e-08,-1.822735820429522e-05,-1.5958730023025961e-06,-5.4639911746467174e-08,1.7841335511371883e-05,1.2752850550069923,1.2752935553677343,1.2752969106461503,1.2753062516209195,0.0,0.0,2.0
5.599999999999988,6.499514184520267e-06,-0.000199297598568174,2.0153351204048353,1.548981965934387e-06,-4.2909583435250895e-05,-0.0003154990289111481,-6.419129211816507e-06,-1.8225605305998232e-07,-0.00015934919865921105,-2.19101125192412e-06,-1.0944775728466544e-07,9.749066867584896e-08,-1.5855639929639176e-05,-1.5962034734205432e-06,-5.4643201738238e-08,1.784078134929403e-05,1.2752856468167122,1.2752941468750658,1.2752975049726485,1.275306845695644,0.0,0.0,2.0
5.649999999999988,6.572552640701294e-06,-0.00020128682504451427,2.0153192628810026,1.460769123620535e-06,-3.978452952680539e-05,-0.00031715047665414886,-6.505018035120356e-06,-1.869692706005875e-07,-0.00015934431512093023,-1.7177614233191267e-06,-9.45380759175143e-08,9.76710786814467e-08,-1.3737430302182552e-05,-1.5966124017137911e-06,-5.464978119964805e-08,1.7840227058439354e-05,1.2752861749601967,1.2752946746907934,1.2752980362111235,1.275307376707585,0.0,0.0,2.0
5.699999999999988,6.6410566806078675e-06,-0.00020311743166922082,2.0153033335177817,1.3700807981314729e-06,-3.6612132494131004e-05,-0.0003185872644184684,-6.567579127753669e-06,-1.909447132997732e-07,-0.00015933942352072423,-1.2512091674978346e-06,-7.970822806266704e-08,9.783223805310943e-08,-1.1845678444838414e-05,-1.597096437999254e-06,-5.4659541172540926e-08,1.7839672655010413e-05,1.2752866462126218,1.2752951455909403,1.2752985111118285,1.2753078514061646,0.0,0.0,2.0
5.749999999999988,6.704920670885346e-06,-0.00020478762719189358,2.015287341900822,1.2772798055495642e-06,-3.340391045345524e-05,-0.0003198323391906399,-6.607214831660491e-06,-1.9418864922445925e-07,-0.0001593345247154256,-7.9270373033573e-07,-6.500502827381235e-08,9.797625733422674e-08,-1.0156220041399044e-05,-1.597652072907433e-06,-5.4672367031122686e-08,1.7839118148321587e-05,1.2752870666281226,1.2752955656305272,1.275298935702783,1.2753082758185266,0.0,0.0,2.0
5.799999999999987,6.764056990814452e-06,-0.00020629618714088825,2.015271296590851,1.1827263985821267e-06,-3.0171198979893387e-05,-0.0003209061994269291,-6.624391841486952e-06,-1.9670958863202627e-07,-0.00015932961947217307,-3.4353215871470967e-07,-5.0473525325038805e-08,9.81049317628561e-08,-8.647469025291343e-06,-1.5982756486522115e-06,-5.468814044070076e-08,1.7838563550586206e-05,1.2752874416168245,1.2752959402205963,1.2752993153668877,1.2753086553266666,0.0,0.0,2.0
5.849999999999987,6.8183958482387294e-06,-0.00020764244308346365,2.01525520523304,1.0867771484855481e-06,-2.692511885150797e-05,-0.0003218271562133168,-6.619637963056963e-06,-1.9851820740197874e-07,-0.00015932470847762376,9.508333072364616e-08,-3.615722626715638e-08,9.821987228204789e-08,-7.300142815150346e-06,-1.598963380408666e-06,-5.470672927069449e-08,1.783800887257019e-05,1.2752877760134198,1.2752962741968616,1.2752996549107363,1.275308994736167,0.0,0.0,2.0
5.899999999999987,6.867885041560375e-06,-0.0002088262703511255,2.0152390746547013,9.897838664329143e-07,-2.3676545353236997e-05,-0.0003226115667764873,-6.593538749166721e-06,-1.9962725082637876e-07,-0.0001593197923450001,5.21987805140055e-07,-2.2097703213939272e-08,9.832254884783488e-08,-6.097016175578285e-06,-1.5997113814359175e-06,-5.4727997347536316e-08,1.783745412260343e-05,1.2752880741386408,1.275296571881107,1.2752999586262104,1.2753092983378669,0.0,0.0,2.0
5.949999999999987,6.912489669779851e-06,-0.00020984807431142098,2.0152229109525597,8.920925643895242e-07,-2.0436079205909496e-05,-0.0003232740428327219,-6.546734079035082e-06,-2.0005143385198762e-07,-0.00015931487162191296,9.360947423675597e-07,-8.334522198617175e-09,9.841427487221288e-08,-5.022702113333111e-06,-1.6005156531497053e-06,-5.4751804845841764e-08,1.7836899308094434e-05,1.2752883398540744,1.2752968371359987,1.275300230345215,1.2753095699625985,0.0,0.0,2.0
5.999999999999987,6.9521917932573975e-06,-0.00021070877526947,2.0152067195707106,7.940424695509231e-07,-1.7214019160980516e-05,-0.00032382763698102224,-6.4799145993645356e-06,-1.9980734000109775e-07,-0.00015930994679940518,1.336388798695693e-06,5.094783691444609e-09,9.849618280135562e-08,-4.0634553078802704e-06,-1.601372136495036e-06,-5.477800744492083e-08,1.7836344437545593e-05,1.2752885766111057,1.2752970734140368,1.2753004734890214,1.2753098130305283,0.0,0.0,2.0
6.0499999999999865,6.986990047463712e-06,-0.00021140979208497315,2.0151905053702612,6.959650841262847e-07,-1.4020336310063028e-05,-0.000324284008987874,-6.3938181583521765e-06,-1.9891331884959672e-07,-0.00015930501831411224,1.7219259498668865e-06,1.815474319069171e-08,9.856936179261334e-08,-3.2069971662856966e-06,-1.6022766876430942e-06,-5.480645558482927e-08,1.783578951514352e-05,1.2752887874947447,1.2752972838013825,1.2753006911119145,1.2753100305947922,0.0,0.0,2.0
6.099999999999986,7.016899212281076e-06,-0.0002119530245921681,2.0151742726915387,5.98183296347281e-07,-1.086465014389919e-05,-0.00032465357445055076,-6.289226126457071e-06,-1.973893729668473e-07,-0.0001593000865574159,2.091835755914157e-06,3.081215797794139e-08,9.863471781497585e-08,-2.442359199959776e-06,-1.603225129225637e-06,-5.483700006017009e-08,1.7835234547526987e-05,1.2752889752626047,1.2752974710568012,1.2753008859405215,1.2753102253808728,0.0,0.0,2.0
6.149999999999986,7.041949739527055e-06,-0.00021234083491172154,2.015158025409664,5.010105449195797e-07,-7.756206391068446e-06,-0.00032494563749096983,-6.166959714726489e-06,-1.9525706206416608e-07,-0.00015929515188210016,2.445321410038436e-06,4.3035758510275085e-08,9.869302360914693e-08,-1.759743427830196e-06,-1.6042132398012463e-06,-5.486947964239027e-08,1.7834679542481444e-05,1.2752891423797954,1.2752976376466463,1.27530106040872,1.2753103998214113,0.0,0.0,2.0
6.199999999999986,7.062187241222106e-06,-0.00021257602774482835,2.015141766984192,4.0475003390102646e-07,-4.703856662136192e-06,-0.0003251685094429746,-6.0278762408281625e-06,-1.9253937572812565e-07,-0.0001592902145990702,2.781660784388957e-06,5.4796832491262424e-08,9.874511742642921e-08,-1.1503971985085681e-06,-1.6052367820887093e-06,-5.4903740355160666e-08,1.7834124500413297e-05,1.275289291050184,1.27529778577597,1.2753012166889663,1.2753105560876812,0.0,0.0,2.0
6.249999999999986,7.0776719413920795e-06,-0.0002126618297405564,2.0151255005034567,3.096940033994668e-07,-1.7160399145611533e-06,-0.00032532961470543853,-5.872865379596371e-06,-1.892606243626386e-07,-0.0001592852749893928,3.1002067398441695e-06,6.6068860742694e-08,9.87915965968293e-08,-6.06501905704715e-07,-1.6062915163944413e-06,-5.4939623849762646e-08,1.7833569428277354e-05,1.2752894232441183,1.2752979174163412,1.275301356720215,1.2753106961174203,0.0,0.0,2.0
6.299999999999986,7.088478094280086e-06,-0.0002126018680282614,2.0151092287241843,2.161230577601346e-07,1.199234245900251e-06,-0.0003254355854487301,-5.702845420350459e-06,-1.8544633112968619e-07,-0.00015928033330229156,3.4003869905661713e-06,7.682749720819174e-08,9.883309841717007e-08,-1.210731211190308e-07,-1.6073732067482844e-06,-5.4976965973868384e-08,1.7833014327821807e-05,1.2752895407233658,1.2752980343307911,1.27530148223291,1.2753108216398121,0.0,0.0,2.0
6.349999999999985,7.094693371562235e-06,-0.0002124001480068995,2.0150929541068807,1.243055456429733e-07,4.034400427237791e-06,-0.0003254923460715986,-5.518759521047847e-06,-1.8112310645970608e-07,-0.00015927538976407863,3.6817041672558745e-06,8.705091756819005e-08,9.887008144205072e-08,3.121281800314013e-07,-1.6084776405622382e-06,-5.501560795538161e-08,1.783245920556654e-05,1.2752896450632722,1.2752981380958908,1.2753015947712154,1.2753109341978022,0.0,0.0,2.0
6.399999999999985,7.096418221581976e-06,-0.0002120610304831569,2.0150766788474384,3.4497000394828706e-08,6.782350474852147e-06,-0.0003255051888473304,-5.321571977370465e-06,-1.7631853421811454e-07,-0.00015927044457276444,3.943735518521479e-06,9.671958606776562e-08,9.890311191704615e-08,6.986755495125285e-07,-1.609600644481123e-06,-5.505538953767449e-08,1.78319040604413e-05,1.275289737672661,1.2752982301216949,1.2753016957130838,1.27531103516811,0.0,0.0,2.0
