time,x,y,z,vx,vy,vz,roll,pitch,yaw,p,q,r,delta_thrust,roll_torque,pitch_torque,yaw_torque,f0,f1,f2,f3,target_x,target_y,target_z
0.0,-0.07876682111276487,-0.04024239374876283,2.130243899989783,0.0,0.0,0.0,-0.0,0.0,-0.0,0.0,0.0,0.0,-3.6023085622411815,-0.0003877155526568794,0.0007588793492111799,-0.0,0.3703128790479045,0.37615041250337516,0.379132839831505,0.3732953063760343,0.0,0.0,2.0
0.05,-0.002018657034998417,-0.20740613992896942,1.9742683799421759,-9.183762439506094e-06,-5.542457971164115e-06,-0.1905099766100049,-0.00017359138891034453,0.0002971151208002327,1.2938055015412095e-07,-0.0034718277782068907,0.005942302416004654,2.587611003082419e-06,4.055901821065509,-0.0018796559683112398,-0.0001835459895599413,-1.207108515626376e-07,1.9064265302594388,1.9050145776766287,1.9194735300959875,1.9208853619679456,0.0,0.0,2.0
0.1,-0.05831775601461991,-0.11951486960533263,1.9380118901780978,0.00010559338971505847,3.112309353599296e-05,-0.21148054681805917,-0.0016679153812366083,0.0007960766562366895,2.1339454320735787e-07,-0.02988647280561596,0.00997924121004657,-7.199440311838685e-06,1.509826290898762,-0.00011371681113388755,0.015,2.716418649524048e-07,1.594626824771402,1.7100115759769496,1.7108861848570471,1.595501705293364,2.0,0.0,2.0
0.15000000000000002,0.018076501505347807,-0.012939491753829727,2.1211015944405585,0.0003025371782015731,0.0006492450131912258,-0.02134892672647659,-0.0034761607304731766,0.007089522131782597,8.188697595836726e-06,-0.03616468747431515,0.12586894325784168,0.00013071539385390793,-4.736250160131501,0.0012718692669730879,0.014716881700916262,-6.282916205219745e-06,0.03952744441177933,0.1527310852684172,0.14295061698057296,0.029740693207729887,2.0,0.0,2.0
0.2,0.0590022288243404,-0.005250355671550378,2.0386908125138596,0.0003402503535408295,0.001209664721328984,-0.20635590042382912,-0.0049356623769210425,0.024034456348291433,3.736657991572634e-05,-0.029183017015840147,0.33889907430623156,0.00037656301495745103,2.092704624407929,0.0012804512110375923,0.006455489430875681,-1.964252312642455e-05,1.7785770735795405,1.8282248633247136,1.8183850598859874,1.7687176276176881,2.0,0.0,2.0
0.25,0.052367364301899984,-0.10055846111202228,1.9367177607742372,0.009368392093373923,0.0031757039669823477,-0.3007715804680666,-0.005277300953687433,0.04827638048331629,6.536675064442902e-05,-0.006808696374566904,0.48483876548186616,0.0003955294143075564,3.1905398627387087,-0.0002506679016460733,-0.000119362074492282,-2.3556709110762272e-05,1.9124508667651479,1.9115209186068056,1.9134609115894077,1.9143673030386394,2.0,0.0,2.0
0.3,0.02199082459002332,-0.16052551178064492,1.9508802659886566,0.03632957215246568,0.006856992259709868,-0.07588398803607621,-0.0050892539966157,0.07447067889242256,7.14395469929065e-05,0.003786054707768941,0.5238857388427626,0.00030256360706683213,0.04149034963476339,-0.0011295021329050016,-0.003634888084828615,-2.042050253575599e-05,1.2953137923494158,1.267342904522543,1.2760415927192341,1.3039920600435708,2.0,0.0,2.0
0.35,-0.05240670287784412,0.0013235536830657998,2.0377034180419624,0.07257332633802255,0.009965145909070744,0.03549834212616343,-0.005865305174385179,0.09926083058899053,0.00016049975358078147,-0.015413943930104175,0.49580458238252717,0.0006256175146712134,-2.2380887588365437,0.0010933840461172406,-0.004687771211082306,-4.365539392342189e-05,0.7380239366670356,0.701942330423287,0.6935535116116545,0.7295914624614797,2.0,0.0,2.0
0.39999999999999997,-0.06201356216449485,0.21925726848041538,2.013687860939847,0.10423042654404849,0.01197757514037294,-0.08236648273135305,-0.0063813150013562955,0.1209610208535626,0.00023278480051222393,-0.010177532212120866,0.4340057063715305,0.00042199467908634784,0.6389581806864113,0.003102571533222002,-0.005045434047817865,-4.3391492139658465e-05,1.4663888760486374,1.427556149165507,1.4037119100406383,1.4425012454316288,2.0,0.0,2.0
0.44999999999999996,-0.07064749927683771,0.3087363224428554,1.9839334204972712,0.15325196740493996,0.014683352992981444,-0.1483064772326559,-0.004951685997274927,0.1391679193393492,6.55762010865145e-05,0.028405608956100073,0.36413380997569494,0.00010579145683180661,1.0303703826327248,0.00271412868998471,-0.0049857904190144554,-1.168634436306236e-05,1.5625105907404229,1.5241525135758223,1.5032804437481215,1.5416268345683588,2.0,0.0,2.0
0.49999999999999994,0.108456104223926,0.16171127893813356,1.8805267482925216,0.22831202807156545,0.017922558183658115,-0.07109175816992774,-0.0011042720899498782,0.15379241259472534,-0.0004660960655066407,0.0760673877443355,0.29250517135402954,4.1737735107532826e-05,3.0645840063355623,-0.0004420758628909714,-0.006554906140707535,5.0482608093842515e-05,1.9364482650318866,1.8860511514074139,1.8894264936640668,1.9398740898966333,2.0,0.0,2.0
0.5499999999999999,-0.07564238283548491,-0.0881693592306291,1.8593075965442698,0.3272271448240294,0.019698158277755465,0.10101117754002686,0.003831692937642572,0.16420328894799047,-0.0012164741830377357,0.0972996078157358,0.2082997224426974,0.00011609393344377758,0.9582020594741805,-0.003922376378888708,-0.004049315424742399,0.00013146165822834082,1.515305876553425,1.4842230271922134,1.514329422354551,1.5455437333739912,2.0,0.0,2.0
0.6,0.05890014021617125,-0.007566456402577843,2.0085476938048017,0.43045821596850176,0.018779444417813713,0.253805948931185,0.006585575925674253,0.17089889152228688,-0.0016399508679903123,0.05411356200687831,0.13399019503119966,0.0005344596228330709,-3.936955717327102,-0.002135434543761446,-0.0045933792916550255,0.0001617108404513076,0.30047427660385634,0.26522144516519713,0.2815670093123673,0.31698155159147773,2.0,0.0,2.0
0.65,-0.08827353048062607,0.16833732488822725,1.8856429844968798,0.48386853774290584,0.01730895375567811,0.08265322965143707,0.006682363637754479,0.17449698580994555,-0.001627368658763054,0.00178835320242654,0.07196493102619034,0.0005810687654255593,3.208610595622953,0.0010828031643028892,-0.0021029316163620674,0.00015838849906083246,1.9251632289547154,1.9090660261553072,1.9006575767957543,1.9169131680942237,2.0,0.0,2.0
0.7000000000000001,0.022593218813801497,-0.02936055712161334,1.8888196504006085,0.5627485694443748,0.01430963040000904,0.040212654997664465,0.006509788545641825,0.17576097594342563,-0.0015678217007104149,-0.0034394650411660316,0.025274289770905442,0.0005917393597188652,0.3723177539064707,-0.0006752677610005676,-0.0025348614909907826,0.0001512820785572114,1.3754939015338636,1.3560706080270597,1.361189334380093,1.3807639099654545,2.0,0.0,2.0
0.7500000000000001,0.29059952762388563,-0.12284725187301024,1.9384016057044717,0.670917331734468,0.010279568624396163,0.16086359807391482,0.006443505639967194,0.17538354321260452,-0.001528124753869273,-0.0012934856653812972,-0.007550684286138974,0.0005621399038833797,-1.146593570245991,-0.0016649833862392442,-0.004968484260404956,0.00014805166570890685,1.00132036711502,0.9631752832524518,0.9759088219291301,1.0142019574574073,2.0,0.0,2.0
0.8000000000000002,0.1688168187907877,-0.019621412038780393,2.063244631290083,0.7489017665636039,0.0074017456883268724,0.10937386457044784,0.005237837232508218,0.17219650895859867,-0.0012890031166328912,-0.023659442832434395,-0.06377441520964432,0.0005751056124616713,-3.3644369402058394,7.925221596886056e-05,-0.002455473563569459,0.00012074128830897704,0.4439095249323796,0.4250816373952306,0.42441163432054635,0.44336026314600446,2.0,0.0,2.0
0.8500000000000002,0.10305036245904053,0.02122284923513168,2.128918739295803,0.7945739243383099,0.0058221648850719995,-0.12214409196825926,0.0033782505337869,0.16645510668437083,-0.000949472444165162,-0.036530247123555945,-0.11486938500138366,0.00041820980813471155,-1.8853576909211744,0.001013510862797034,-0.00013977897556320294,8.915942541479611e-05,0.8083740175608922,0.8073433743846519,0.7995025572658134,0.8006223598674684,2.0,0.0,2.0
0.9000000000000002,0.27171588990741696,-0.08018755318943135,1.9178871570554321,0.8356587885208278,0.004885260595415865,-0.3708961016682144,0.002195324884377213,0.1598848053061105,-0.0007315031788625916,-0.02323249109320835,-0.1314258564426862,0.00043977876136351687,5.917276896697036,-0.0002530506484307073,-0.0009883978728041666,6.386463931698416e-05,1.9157622923954534,1.90819116415508,1.9101057752848882,1.917740768164579,2.0,0.0,2.0
0.9500000000000003,0.32990639002870786,-0.018509587427426137,1.935744559154376,0.9231277061726972,0.003554123746362728,-0.32467373821897016,0.0011376027027293614,0.1528528630827835,-0.0005448995861644275,-0.020805431361544294,-0.14065234091508966,0.0003644607508869049,0.4853204612621275,0.0003576707752852351,-0.00131271070525773,4.6059586139685345e-05,1.4030431445749316,1.3929683997121727,1.3901940562630626,1.4003148607119613,2.0,0.0,2.0
1.0000000000000002,0.18962494638985875,-0.10453000376822827,1.8940782229057678,1.0208737172434479,0.002503400367264326,-0.1962974247973559,0.0003082575541970008,0.14504508145891234,-0.000393899035826253,-0.016328137917813797,-0.1561635165677127,0.0004947683987338983,1.8134300627612352,-0.000534191397749897,0.00045169826217496533,2.380056590678995e-05,1.7248596822414288,1.7283461845411126,1.7324434488562355,1.7289807471224583,2.0,0.0,2.0
1.0500000000000003,0.4150137385187734,0.05024017155126343,1.9346138253877305,1.11052954224795,0.0021176214008923264,-0.08610095421689667,-0.000780870071335744,0.13693699653135896,-0.00021980419667800457,-0.02151547258278423,-0.16216848755138236,0.00033366268046344615,-0.467525263554152,0.0012085369179084707,-0.0014954970611840844,1.0917918668126416e-05,1.1688160853206127,1.1573177207323766,1.1480158239429776,1.1595251064498815,2.0,0.0,2.0
1.1000000000000003,0.32817362403440453,-0.09751677491451788,1.9476875017543658,1.1872330609429693,0.0022271283367499353,-0.03778653737243065,-0.0014270777404814107,0.1284069356557047,-0.0001133447395576691,-0.012780717147041555,-0.17060346551999794,0.0003650153070921121,0.014953768208377183,-0.000411669219568729,-0.0002210338539212815,-2.291019618079509e-06,1.278305801862201,1.2766043959376128,1.2797722277517969,1.2814713426567668,2.0,0.0,2.0
1.1500000000000004,0.41732621348603727,-0.00020789200268482924,1.9289644585065393,1.2492608275659278,0.002771766305210595,-0.061274155244577244,-0.0019300420018768213,0.11931355699159492,-3.0647931396306624e-05,-0.00996756814247762,-0.18186838256857493,0.0003658411022775248,0.8768139245888837,0.0004940457607654859,-0.00039007413412126343,-1.1585753671048271e-05,1.4979068387198187,1.494900475580512,1.491105916451459,1.4941006938370947,2.0,0.0,2.0
1.2000000000000004,0.747507946005614,-0.04057908121361624,1.9724553463670507,1.3152757464511544,0.003699267906824115,-0.018380176916172886,-0.0020401039941977187,0.11001244481044672,1.1775945586407297e-06,-0.0021823260421781673,-0.18602229626170574,0.0003745106372471043,-0.8349751479936844,-0.00010705930793122249,-0.0031033192083905693,-1.5505634562579357e-05,1.0780841659504479,1.0542047269147774,1.0550360128699914,1.0788999462710989,2.0,0.0,2.0
1.2500000000000004,0.5951823634525508,-0.012803512287670656,1.7810755611755469,1.3708577741018213,0.004653571943914088,-0.02776231787120942,-0.002200699882249652,0.09939017201083183,3.819613053333084e-05,-0.003196497004593954,-0.2124454240502671,0.00038771089267838015,5.4758684352022975,0.00021299586917147034,-0.00030496372008146505,-2.019304402462902e-05,1.9149472005273638,1.912591229235494,1.9109628959946487,1.913298674242494,2.0,0.0,2.0
1.3000000000000005,0.7905626110676222,0.16743830209317317,1.9709338330773793,1.4313112861688526,0.005916976627345534,0.06784855339598383,-0.0023164768357735923,0.0876562638118357,6.937358590396834e-05,-0.0023157719142413115,-0.23467806244711265,0.0003937175936408269,-4.351184559169411,0.001944333324732318,-0.0009151063111730876,-2.3931040430594438e-05,0.1985076877212373,0.19145644288430594,0.17651199821427263,0.18353931201077336,2.0,0.0,2.0
1.3500000000000005,0.7010334945160999,0.1798333439797352,1.984552881632003,1.4676562949091143,0.006762709989486353,-0.05365382167148436,-0.0013585234012932924,0.07540454214014401,1.0419721383128467e-05,0.01908906090602381,-0.24503495715296864,0.0004982073820079165,-0.1382319564488174,0.0013494413732327106,0.0011081885378301012,-2.1618402048649868e-05,1.2416753110090872,1.2501890290221405,1.2398195199675288,1.2312841835524266,2.0,0.0,2.0
1.4000000000000006,0.9196973154957143,0.14834478473794127,1.8738070072443243,1.4902627345480601,0.0072382938063060565,-0.25013751091454317,0.0009782011477090543,0.06333918062691872,-0.00013457138776382636,0.04664165670626834,-0.2413036108219651,0.0006210706561398304,3.59831719855535,1.882778475848108e-05,-0.00016228939599550587,-1.0425085092435403e-05,1.9136492108126346,1.9123956183008926,1.9122560017299117,1.9134991691565617,2.0,0.0,2.0
1.4500000000000006,0.9919401550319478,-0.1857309235323619,1.9633065987663563,1.532044628678051,0.007149718574482045,-0.12266438486349784,0.003940092823832098,0.05151744738412579,-0.00028786305821027137,0.05919519198151377,-0.23642115510648498,0.0006841669665556274,-1.6572932649116667,-0.0038471923583577325,-0.0002304011932466797,4.1512232619346405e-06,0.8470649107158408,0.8452946694563435,0.8748863812166949,0.8766607736994543,2.0,0.0,2.0
1.5000000000000007,1.0114447510821276,0.031626518247673104,1.7893077116000287,1.562387571944328,0.006051519846266909,-0.10076410363675237,0.0048330092507988965,0.03964111291093236,-0.00030917754738754084,0.01791393492846147,-0.237521132272929,0.00049378728241966,5.173723618731404,-0.000626779214003938,0.0004816893041785722,1.4353271425137198e-05,1.908683071227596,1.9123955502031433,1.917209752136692,1.9135116264325693,2.0,0.0,2.0
1.5500000000000007,1.1056359227566106,0.06550179517533257,1.8396235388631252,1.586089633201282,0.0034594273268668055,-0.03816429433934676,0.0040616520511177175,0.027889651678284437,-0.00025652972602237126,-0.015349539631986322,-0.23503374589525258,0.00044195043397110496,-0.33360279464752585,0.0007326487945031754,0.0004092176017741823,1.0585400619466577e-05,1.1931406211138447,1.1962937415201094,1.1906526888620832,1.1875101538564377,2.0,0.0,2.0
1.6000000000000008,1.3793951407530938,-0.004763874832469482,2.0160781534952426,1.606236628330362,0.0008380588684782017,0.05421801006659788,0.0037277830434889686,0.016444139910945114,-0.0002197533927258723,-0.0066181896385903004,-0.2289119095595168,0.0005496445979763507,-4.225309953859075,-0.00019158874788032033,-0.0015009752420756973,2.046114266319369e-06,0.22400810190741632,0.21246316156396722,0.2139358981059134,0.22548288456362886,2.0,0.0,2.0
1.6500000000000008,1.40146467685713,0.06865857523989242,1.9128045918467456,1.6127595255793192,-0.000167199305327638,-0.18378923474455355,0.003031146747745381,0.004508212051272386,-0.0001846931089235243,-0.013881114841638264,-0.23872153357461917,0.00047240003965728385,3.125752399088297,0.0007871467147625876,-0.00036264490104630394,1.2907840883101312e-06,1.9173719527493969,1.9145830219795466,1.9085274018585592,1.911317623412498,2.0,0.0,2.0
1.7000000000000008,1.360550118016171,0.08425576044252824,1.7127410152409848,1.6152297037521501,-0.0015274866753253388,-0.23174008680376001,0.0026970022109645193,-0.008037892410238988,-0.00016032826867446302,-0.0066368547077386274,-0.25092331425769143,0.0004574571791225138,5.840497895153665,0.000744038424501503,0.0015420491299195694,-8.243138388231337e-07,1.9098809341345442,1.9217424383616217,1.9160194780223754,1.9041571494814593,2.0,0.0,2.0
1.7500000000000009,1.5155605405422437,0.1068174773529291,1.687305719866282,1.6134544903203407,-0.003597059168640067,0.013457738378472861,0.003527966065272731,-0.020029967054557014,-0.0001243563342309337,0.01665559321054981,-0.23983888110092885,0.000586076045471975,1.8459591345397628,0.00018018074808268797,0.0008538214962657537,-1.0132483857595384e-05,1.734201390801355,1.740764182223009,1.7393832427104554,1.732810318804944,2.0,0.0,2.0
1.800000000000001,1.701397305126147,-0.2116097086207332,1.7063850711185014,1.6034066713160833,-0.005777032274531212,0.22149295787417422,0.0042553076905475894,-0.03123067143975674,-8.154373676311428e-05,0.014568509644002848,-0.22401238366148196,0.0005650359655986061,0.5336230706591238,-0.0029111821839210568,-0.0002797214362897522,-1.4063168737573004e-05,1.3985882805814605,1.3964295456410163,1.4188302863324704,1.4209749581041766,2.0,0.0,2.0
1.850000000000001,1.6975914321744014,-0.01441285884223977,1.8776078317259828,1.5880751203733112,-0.008144835367528344,0.3293168936461832,0.003775429615011217,-0.042274733436162316,-7.631885743918611e-05,-0.0095715592024756,-0.22088209301054124,0.0004043046983368986,-3.959461785288662,-0.0002728758944927595,0.0008156970127826639,-8.050217698078525e-06,0.2812497473581228,0.28752031465529426,0.2896233851063953,0.2833447675915258,2.0,0.0,2.0
1.900000000000001,1.6507571418485927,0.00033957666190793934,1.995647096569389,1.5779069781137034,-0.009448386567832943,0.14284416353159024,0.0020120648519038544,-0.05305592910934747,-0.00013171920818707978,-0.03520325923045975,-0.2156279131120381,0.00038263665394014384,-2.9436245753583004,0.0007797919671128784,0.002197650846932968,-9.567084133136396e-07,0.5339407919536049,0.5508453201142672,0.5448473987214518,0.5279419138523761,2.0,0.0,2.0
1.950000000000001,1.7526739974979768,-0.03712029740914627,2.06828193108676,1.5697296315247922,-0.009856018023635636,-0.18438475015435163,0.0005796754141851623,-0.06270833816162977,-0.00018840726607214096,-0.028567383489619316,-0.19305303156288534,0.00038565120418953104,-1.6377520719223138,0.0003534065403150494,0.0015143121503869382,5.267778198710832e-06,0.8613956434976725,0.8730468323897481,0.8703256866520716,0.8586797655381945,2.0,0.0,2.0
2.000000000000001,1.8310578186708346,-0.08152251700300649,1.8785304269003813,1.5532657110013082,-0.010134994659836555,-0.39881710759252176,-0.0003537374997348871,-0.0710594266286843,-0.00022455266139606385,-0.018590326032382514,-0.16702581949312129,0.000447150862259794,5.474619909794023,-0.00028397848166817144,0.0009000009484089549,6.790957360577206e-06,1.9083945352219018,1.9153210149191127,1.917502069299418,1.910582380559568,2.0,0.0,2.0
2.0500000000000007,1.882971297755843,-0.04432775496431808,2.1193411630129333,1.5151082743044286,-0.010075245653279781,-0.33614665915124853,-0.0012633112079767394,-0.07852731947494654,-0.0002748493333672483,-0.018102379555035953,-0.1493625112313612,0.0002858139124368486,-5.4651561632788965,0.0001452675620571512,0.0008767331782615793,1.9046374826616207e-05,-0.09380713170652465,-0.0870535071478684,-0.08818047312033674,-0.09491505130416635,2.0,0.0,2.0
2.1000000000000005,2.0233721886512233,0.059031816930198946,1.7178182950103689,1.4930978297040554,-0.009991535166967106,-0.5155564120350409,-0.002411226592905727,-0.08541585749792201,-0.0003387679430513738,-0.022837282988510833,-0.13777807242889678,0.0005227990263294157,10.474745185788189,0.0013885234609923788,-1.3922557903383932e-06,1.647602385231776e-05,1.9182917106739705,1.918289239025971,1.9076000513141038,1.9076189989859553,2.0,0.0,2.0
2.1500000000000004,1.9499811265176776,0.14039920239599105,1.9854537283633131,1.4597911315403067,-0.00901473900271458,-0.6186052403414966,-0.002670623130017694,-0.09199105728417122,-0.00033906580638723297,-0.005121556542195871,-0.13150579545231852,0.00043679144816396374,-5.129931360712682,0.0016815708303606245,0.0013971376289523424,2.0040014132606097e-05,-0.006093876330133227,0.004663356207335711,-0.008281824033273858,-0.019019016556610188,2.0,0.0,2.0
2.2,2.2794329618455493,-0.14507080460428232,1.6122343232893663,1.431685699950238,-0.00817818251987252,-0.780691417924797,-0.0016392521980783188,-0.09801532735171377,-0.00021869765237603013,0.02056963867259979,-0.12047940629748324,0.0005125855901915481,9.910244275548523,-0.0019165153670988638,-0.0013183279585595455,3.4491688797623045e-06,1.910648416905706,1.9005091571935337,1.9152498585098545,1.9253925673909063,2.0,0.0,2.0
2.25,2.0893507478846858,-0.00589055321928571,1.605424101395456,1.3921968095132176,-0.007529857011312584,-0.8697409414282165,-0.0008363206653940424,-0.10409804020644794,-0.00011949520115743607,0.015998601344665644,-0.12165138863671418,0.0004126267124640045,1.490254119415835,-0.00051043706348592,0.0014271105965597782,-3.556718571508329e-06,1.6404123126488104,1.6513883081092153,1.6553165254183928,1.6443369732394166,2.0,0.0,2.0
2.3,2.1638810550916134,-0.0035054466050795496,1.6696243682083114,1.3235646858196137,-0.00673253265132746,-0.6840456859103528,-0.0009662096751620302,-0.11008836807994589,-0.00010419557066828852,-0.002567784083025126,-0.11980688258823821,0.0005759760011768781,-0.19269545613110273,7.886432552198248e-05,0.0017559686199970666,-1.1975585478901986e-05,1.2206787287309977,1.2341801918613124,1.2335795309961903,1.2200660922803968,2.0,0.0,2.0
2.3499999999999996,2.420498147283194,-0.17072305661953857,1.7239524505407662,1.2653712110764026,-0.006249837369462444,-0.6328974586495839,-0.0014166853644197168,-0.11482715528910102,-0.00013458708153068523,-0.008940407691828963,-0.09477689773224092,0.00038204450659661573,-0.007717441200556507,-0.001298309829218529,-0.0005529635353383626,-6.112406709111959e-07,1.270504075995105,1.2662502047183206,1.2762375090249523,1.280490769061066,2.0,0.0,2.0
2.3999999999999995,2.4798531803323747,0.13605081291938986,1.5432082515832048,1.2111683810540352,-0.005688529061137777,-0.6446119895372737,-0.0023906199710930463,-0.11925240044163403,-0.0002208559110288594,-0.0193286289641964,-0.08850858432691991,0.0005064408470758594,5.545824346377947,0.002059127431693333,-0.0004685024029134711,3.943105670674652e-06,1.9226706674336087,1.9190687743486479,1.9032273610135564,1.9068331972041876,2.0,0.0,2.0
2.4499999999999993,2.6512690549631546,0.05624541256924568,1.6894483475050464,1.1377821447467529,-0.004400959482836215,-0.5144157698680152,-0.0028590030306327595,-0.12408677327742584,-0.00025348649415483855,-0.009274388449404303,-0.0966897663731128,0.0004619226523473036,-2.0902537543233164,0.0010473955696983623,-0.0008474255614434504,9.424738217800382e-06,0.7600219788159313,0.7535080330200905,0.7454464316533018,0.7519698021873604,2.0,0.0,2.0
2.499999999999999,2.430236872315821,-0.0025194678523086846,1.5752848317111126,1.0787130680239532,-0.0031178977667318565,-0.5182173131220447,-0.001910767289347057,-0.1293712066325745,-0.0001167332154030887,0.018833283809601007,-0.10568500009787533,0.00038786586204826734,3.992483703616107,-0.0004265269790829486,0.002507466963531343,-2.849581155733262e-06,1.901666120308311,1.9209529029295127,1.9242353044822673,1.9049456722799096,2.0,0.0,2.0
2.549999999999999,2.5334575371263073,0.017351209939499845,1.5777546547180001,1.0103284922475808,-0.001978798964283133,-0.47817061817351014,-0.0011734888460777602,-0.1340140036459199,-1.0655374406031759e-05,0.014624350442861443,-0.09285492874711829,0.00021922590339725325,1.310052279518115,-0.00017061994586054687,0.002108099250033633,-7.806035244212806e-06,1.594050716788747,1.6102629618483066,1.6115793259879327,1.5953592748931291,2.0,0.0,2.0
2.5999999999999988,2.562377415774477,0.09896256273350656,1.485203375716951,0.9223112547126444,-0.0009665159844991084,-0.3043112423120764,-0.00016014578522222987,-0.13686382038452988,0.00015695631145763391,0.02007802969562895,-0.05699748003807645,0.0006443033342568651,3.5721526320229158,0.00036823229525204164,0.0017330865991072658,-4.4025638007308185e-05,1.9077115667792897,1.9210209893380341,1.9182104460397142,1.9048569978429626,2.0,0.0,2.0
2.6499999999999986,2.5589605364227914,0.05271334142540133,1.4717224839752818,0.829961936875554,-0.0005778493334447805,-0.11901023044701642,0.0009696367235804669,-0.13840525894769162,0.00033423880033987943,0.022374761303855913,-0.030834008343440595,0.00046276366485536904,1.7669598260306327,-0.00024741534715951957,0.0018679457069170936,-5.6426436345504906e-05,1.7089180590626039,1.7232586589745624,1.7251900671708853,1.710793040822581,2.0,0.0,2.0
2.6999999999999984,2.6667596666911844,0.05443389478851206,1.6234634246176103,0.7346485294333771,-0.0008682864144493076,0.07823070802917442,0.0017665286789075973,-0.13870082681905632,0.0004658027381260052,0.015782802971970728,-0.005917500689322001,0.00043243583403624643,-2.1526523884382622,-0.00011291520907368448,0.0008753515813802549,-6.991471071336699e-05,0.7333533554509823,0.7400518717985507,0.7409554076852434,0.7341869766269618,2.0,0.0,2.0
2.7499999999999982,2.818490275450399,0.08071259596632649,1.534814861927058,0.672045538925925,-0.001432127216279746,0.03650984959005399,0.002524723842136502,-0.13802064395345975,0.000590352888553261,0.01502603658460962,0.013595872395450799,0.00039449447000514316,3.4495509640607995,8.74372699798256e-05,-0.0007307149730841346,-8.230500575395662e-05,1.9161173156478384,1.910455278736622,1.9098238368550389,1.9154035687605013,2.0,0.0,2.0
2.799999999999998,2.857117859633582,0.06604343855768373,1.6061518941642674,0.5987412848958495,-0.0026644206563793994,0.07309412011419436,0.003354283197917179,-0.13733325064933807,0.0007255948949788664,0.016443090993862437,0.013737223363840468,0.00042217819691724406,-0.28521810453830443,-0.00018281425691969638,-0.0005914578845457221,-9.85865599594992e-05,1.205591826765514,1.2009928574505673,1.2024484142453136,1.206948797000301,2.0,0.0,2.0
2.849999999999998,2.9348865258959176,0.030610573055596158,1.5843930857270012,0.5183362235892552,-0.004349549668937521,0.16292468111527292,0.004061074925312282,-0.1371190482947042,0.0008446131926775935,0.01400625884108891,0.004273207868563868,0.0004451457849700925,1.8754713122958102,-0.0005315161184288682,-0.00044556690068144305,-0.0001128576969396476,1.7438654685837744,1.740381602037755,1.7445266164126005,1.7478976252616802,2.0,0.0,2.0
2.8999999999999977,2.794017294096513,-0.03597352112482176,1.5481392602121626,0.43938753371036476,-0.006533170327350877,0.2442974196797998,0.004409895387333041,-0.13730624044922074,0.0009114266864595021,0.0069075847760077065,-0.0037498434171924135,0.00038266677982712387,2.240119069190785,-0.0010133314494866637,0.0017901824962404979,-0.00011777505284304246,1.8245764651158025,1.8382882121758464,1.8461419570060114,1.8323124348931248,2.0,0.0,2.0
2.9499999999999975,2.8019842608957,0.028240161110822438,1.6309247578490884,0.34498152902545876,-0.009461320453714363,0.43747063897277005,0.004154667430243357,-0.13691427204869583,0.0008964832786273291,-0.0050496433900629354,0.00784388531958948,0.00039981866351143755,-0.9420529208466878,-4.1154984059181255e-05,0.0020812943434895467,-0.00011680569875819454,1.0316527045685995,1.0476042582076015,1.047979237857436,1.0319108785196753,2.0,0.0,2.0
2.9999999999999973,2.642015090207214,0.0589834919699932,1.5870327042090104,0.27141211359069217,-0.011771477897450783,0.47944647992281375,0.0035206925014792433,-0.135116964231372,0.0008308589444551178,-0.012531722890765824,0.03595686169832035,0.00041807624112176126,2.1008805039980123,0.000516693226827539,0.0032070692591681014,-0.00011020621001648949,1.7902000774276206,1.8148147378546746,1.810895277676394,1.7861704110393235,2.0,0.0,2.0
3.049999999999997,2.937789024721067,-0.040825627477602176,1.6718488061997252,0.1954874311859367,-0.013829436365494193,0.5446601238885096,0.0029669293925548845,-0.13136482347639009,0.0007829904490156658,-0.010917561750921059,0.0750515024319151,0.0005344326155786487,-1.3719838248228005,-0.0004571875296929588,-0.0005457578276152011,-0.00010962209761050962,0.9326721043107112,0.9284191561264045,0.931990794326694,0.9361341204133903,2.0,0.0,2.0
3.099999999999997,2.9531486558385835,0.031227476302707828,1.6821904568846284,0.12765716056303944,-0.015497776164663628,0.5584450480671421,0.0023418662713761734,-0.12680618259328838,0.0007219361095842296,-0.012329625598917218,0.09118199192158424,0.00041627734915123245,0.2691247890163324,0.00032377477898474003,-0.0010584653629441634,-9.793459805372251e-05,1.3479219891417846,1.3397309805893414,1.3372893726654087,1.3453824466197986,2.0,0.0,2.0
3.149999999999997,2.636498177589793,-0.05289167212061008,1.77095595314472,0.0706108138822703,-0.016633805981959057,0.5096673136738916,0.0018866405995036977,-0.12287157454687582,0.0006898801759877643,-0.00897912928817541,0.07869840369026918,0.0005101969267044865,-1.8570977068874073,-0.0005520793718353306,0.0024449113685729583,-9.820022519818419e-05,0.799523235871339,0.8182811462862242,0.8225770107975566,0.8037209001574733,2.0,0.0,2.0
3.1999999999999966,2.916963195476983,-0.13469364839737313,1.6671348331647982,0.020193502188252666,-0.017498001261197514,0.4199393666735052,0.0012290605216524382,-0.11828445859879083,0.0006303074896349615,-0.012996548354554258,0.09175078057791813,0.00042031579411742014,3.221650980536859,-0.001167157719642721,-0.0006714749595011349,-8.783930985717404e-05,1.9110654876730735,1.9058563760219827,1.9148784319818553,1.9199997043230892,2.0,0.0,2.0
3.2499999999999964,2.9068968835730877,-0.08932566121600916,1.5560830951128233,-0.04476500949581741,-0.018279097168084794,0.4705717134943699,-0.0002826534869058978,-0.11317839169686468,0.0004752396759590038,-0.029976864914289823,0.10213757335002255,0.0004664506871388673,3.8140958482957585,-9.416681323787313e-05,-0.0008434750087716153,-7.236782870633033e-05,1.9158500465553836,1.909325593342787,1.91008613735897,1.91653822274286,2.0,0.0,2.0
3.2999999999999963,2.792644289928818,-0.08421714350159619,1.6837180906271794,-0.12955164659066654,-0.018589721154015484,0.7108993806040864,-0.0022411136478632326,-0.10865537564686494,0.00028776194437650813,-0.038895620054873306,0.09047450967866978,0.0006740578625725067,-2.7086078773593543,0.00039842350799909176,0.0008501827590013773,-5.9895390109685835e-05,0.596425468926911,0.6029353886087897,0.599900540088467,0.5933307250164784,2.0,0.0,2.0
3.349999999999996,2.7458772100930133,0.02035247594179589,1.8438980490742705,-0.1806510776806558,-0.018206227312137217,0.6751803726039229,-0.004013473153854094,-0.10406279760763992,0.00012170863022011654,-0.03522937284517745,0.09185831421403051,0.0005228742154871186,-4.136224761901868,0.0014660166083986389,0.001235746681088366,-3.5093714820252866e-05,0.24213823651981609,0.25162643336308566,0.24036692938666016,0.23084363882857029,2.0,0.0,2.0
3.399999999999996,2.7321842273709818,0.04847181884904568,1.8003330463838487,-0.1972054128716927,-0.017745727061655135,0.3383417935991906,-0.004939514062480213,-0.09869815552697456,5.266365663174724e-05,-0.018417889287206814,0.10729419756363183,0.0005429454538025429,1.3711348409778121,0.0013308135312316456,0.0005427951943727533,-2.818561566736505e-05,1.6211215964055197,1.6252828512467072,1.6150599168912203,1.6108704764343655,2.0,0.0,2.0
3.4499999999999957,2.8248127112668686,0.0363091313213093,1.6847005668116841,-0.23528727214849,-0.015859546232245725,0.22996918507641073,-0.004574174305883679,-0.09271963200117198,0.00011067736963585912,0.0072818367204439995,0.11956995623457253,0.0004402457362250603,3.7669962670710166,0.00043606582233301534,-0.0009682611052872429,-3.0466453689457292e-05,1.9183588740273465,1.9108954784521384,1.9075563591994986,1.9149892883210171,2.0,0.0,2.0
3.4999999999999956,2.9036754819671704,0.02680124666235939,1.90237397808446,-0.3003519184253367,-0.012616046888181374,0.4210826954429514,-0.0036255680701588653,-0.08698695183151003,0.0002256767204597799,0.01891339152419319,0.11465068080170145,0.0005433539863621866,-5.261783666162305,-6.160201552650076e-05,-0.001602952184900855,-4.757732277815006e-05,-0.0342057523276726,-0.046559942411375954,-0.046062292092090715,-0.03375567933116552,2.0,0.0,2.0
3.5499999999999954,2.717181074273073,-0.02710277428800089,1.7925818638227273,-0.33023185395231636,-0.011134835570822538,0.2518259645845822,-0.0024565584057002566,-0.08214600436696318,0.00035146071065500565,0.023323475332716857,0.09681250493105642,0.0004843987619496567,3.0921334573027517,-0.0008083842947504175,0.0005051027495293925,-5.924316530360425e-05,1.907912937544096,1.9117687217270551,1.918016684038556,1.9141016566902935,2.0,0.0,2.0
3.599999999999995,2.846299670042107,0.14536152443356226,1.8970524341916692,-0.36280035168301694,-0.010183802328523617,0.1577162833572121,-0.001465298783676814,-0.07767775852268882,0.0004575770605270405,0.019797015782728,0.08935716070011478,0.0004955149132868207,-2.1489861796969336,0.0008723750057626981,-0.0006780042032993733,-7.158296790057812e-05,0.7440343477756729,0.7387831393432659,0.7321083538598109,0.7372879793243171,2.0,0.0,2.0
3.649999999999995,2.627215078187934,-0.04514936151657037,1.9283600351703358,-0.40212823258931607,-0.009139238666565769,0.15274806044509592,-0.0008650188794684724,-0.07325288148815197,0.0005273237220865304,0.012014012089923238,0.08849177374669487,0.0004632058207717073,-0.6024513981447212,-0.0007811395553133525,0.0013566781498897252,-7.806727869335811e-05,1.1164842914942503,1.1268812436232865,1.132929043072736,1.1224540236650067,2.0,0.0,2.0
3.699999999999995,2.8445346075392988,-0.012403119185906693,1.8334361510638402,-0.4294393638987337,-0.008749268593111568,0.026889339470717033,3.2407087414664574e-05,-0.06854292353651442,0.000615548762994682,0.017956243181637528,0.09418911532302549,0.0004507684678666606,2.9741343556302726,-0.0007216075844593128,-0.0011284595515976357,-8.743663833525733e-05,1.914536674417808,1.9058124980094282,1.9114070439013597,1.9200437836714046,2.0,0.0,2.0
3.7499999999999947,2.674378583072533,0.0035163099015944168,1.6989797426491937,-0.4714001965608805,-0.008612322796778434,0.1343301122806917,-1.5263047837820645e-05,-0.06382919502181196,0.0006361612315624059,-0.0008934405738028292,0.09427513655759764,0.00047741118855522185,4.313570179379552,-6.4387646667964045e-06,0.0004006288448810328,-9.08386245864058e-05,1.9114070650040398,1.914443406036985,1.914538354308254,1.9114111746507219,2.0,0.0,2.0
3.7999999999999945,2.897675808051308,0.06584170149210405,1.8694069906677133,-0.5198948705729567,-0.0086335708391185,0.3778068486818764,-0.0004506552194363865,-0.05933120900387494,0.0006376435260846353,-0.008635378272679928,0.08996511135070218,0.0005849612696035533,-3.937484103301356,0.0008629378104575319,-0.0016594924764801787,-9.541957933127302e-05,0.3006544840192544,0.2878414474874335,0.2812511741197335,0.2939687910722231,2.0,0.0,2.0
3.8499999999999943,2.5426668055327926,-0.04770568846354495,1.958308554514599,-0.5446167234825605,-0.00857980393562642,0.2793967743961545,0.00027987848368912657,-0.0554234334207611,0.0007057850627237931,0.014638183394216768,0.07814587763833103,0.0004963697828142974,-2.2954485040406842,-0.0009855497769912863,0.0019407255261676627,-9.941373233229605e-05,0.6902078224107624,0.7050867734381936,0.7127176324350619,0.6977392676752983,2.0,0.0,2.0
3.899999999999994,2.659703147071062,-0.21396044008816018,1.9338181906297394,-0.5558436284331059,-0.008605654598625098,-0.012803987931366834,0.00046180666769330406,-0.051254276610801376,0.0007409199647547326,0.0036926670415445414,0.0833805324269195,0.0005010153859900252,0.9625336976970615,-0.0022814934377001915,0.0003586584653373039,-0.00010353903155015477,1.505804878785855,1.5085120205419054,1.5261137395784512,1.5233030587908505,2.0,0.0,2.0
3.949999999999994,2.5143827324489645,0.14618790045939278,2.0027244409725826,-0.5790275096996833,-0.008835583839679473,-0.06184267585579217,-0.0010325289466272753,-0.046241338318753496,0.0006931051585948416,-0.02978084866652486,0.10027971576304098,0.000574704011140351,-1.4163343807142907,0.0023137119557284556,0.0009759128019220728,-0.00010120940911349352,0.9263870885344996,0.9338435053831895,0.916096325812912,0.9085386995551086,2.0,0.0,2.0
3.999999999999994,2.5870556903178032,-0.09047390750215879,1.8872858210854382,-0.6014843468079079,-0.008745924022626334,-0.09565128282993385,-0.0020633665111301036,-0.040850162100939766,0.0006723172624415077,-0.020525112755305934,0.107837285521892,0.0005370680649843207,3.4232971467435407,-0.0001427122209412151,-0.00027243597955955377,-9.7336502708046e-05,1.9134732716588245,1.9113289420262434,1.9124753965925296,1.914522389722403,2.0,0.0,2.0
4.049999999999994,2.521809915446919,0.15255733604936275,1.8326814391531168,-0.6253884967861278,-0.007725232839004316,-0.022499554811243883,-0.0022406190884434506,-0.0352151697302103,0.0006918855199279075,-0.0034671382586504364,0.11270219107968152,0.0005359298220460069,2.144924108197106,0.0017199840529001772,-0.00012383515248796145,-9.948113662770788e-05,1.8186475096618495,1.8176451909974745,1.8044642850050177,1.8053671225327648,2.0,0.0,2.0
4.099999999999993,2.6092516550779177,-0.17785973969733404,1.980053225943997,-0.6524015386791859,-0.006155125744301201,0.20069612689598948,-0.0018842904148263279,-0.02968640333383146,0.0007290537420570803,0.007200046814411418,0.11057032810104027,0.0004922383893965548,-3.595349715772353,-0.0017990277495780803,-0.0012053336084295624,-0.00010184988984125342,0.37420459452495475,0.3648818725921144,0.37877147253378957,0.3879923445767886,2.0,0.0,2.0
4.149999999999993,2.6458682977650234,0.13055046750954247,1.999575552091958,-0.6657851183074115,-0.005309806462727752,0.10320574362603807,-0.0015127510055649614,-0.024681302334894913,0.0007674590343504287,0.007501596398710774,0.10009653655267771,0.0005473605009124044,-0.5669258967225907,0.0011354908903674521,-0.0016099306108547547,-0.0001084134990920557,1.1441549426603648,1.131716654288859,1.123036315727886,1.1353661906002999,2.0,0.0,2.0
4.199999999999993,2.5013897843606574,-0.005549914444343496,1.9651214165373592,-0.6736079482477209,-0.00483252067417228,-0.08245555594163623,-0.0015052705746811078,-0.0206743697433611,0.0007943984175049488,0.00021108125741869677,0.08013851342131928,0.000534972253362857,1.1753930569398305,4.245500554510583e-05,5.922704986828341e-05,-0.00011092177577187621,1.5691114868161191,1.5695116186195277,1.569240502541682,1.5687294489625019,2.0,0.0,2.0
4.249999999999993,2.3995840104599933,-0.022485004283287473,1.7401776689713548,-0.6852930569964588,-0.004018867619504374,-0.04505289162193282,-0.0007367579096750256,-0.01720712073250396,0.0008349587739212343,0.015423153075708356,0.0693326278889493,0.0004933668096937284,6.452352760035184,-0.000634854293519374,0.001128038874529247,-0.00011375602889413185,1.9061980806685752,1.9148184247658913,1.9197587973458723,1.9110246972196618,2.0,0.0,2.0
4.299999999999993,2.301957902771718,0.038430787990912624,1.9593985342866653,-0.6978856158280067,-0.003321867860656205,0.14073423172844102,-0.0002647658095817819,-0.01326065719097052,0.0008677796490005342,0.009504985236004833,0.07892132374298456,0.0004938636011038594,-5.040164448618576,8.81850761319472e-05,0.0015172143575156313,-0.00011745188105845132,0.009791984348760408,0.021404138081428343,0.02078451728248105,0.009054911668754663,2.0,0.0,2.0
4.3499999999999925,2.3408039911743836,-0.07633255138222848,1.9047379356574476,-0.7036561070770286,-0.0030848880972560166,-0.01557933387879018,-0.0003251597985332088,-0.0084076815905678,0.0008937544571306378,-0.0011236239364155933,0.09706052312785496,0.0005353088127789883,1.8004937500099176,-0.0006963408180844929,0.00020073449239889395,-0.00012206201722556398,1.7220036633510805,1.7234867438224593,1.7289042426624912,1.727299100173887,2.0,0.0,2.0
4.399999999999992,2.208712648549022,0.025943528887641377,2.0019977667702693,-0.7067760294826986,-0.002972406118692643,-0.13849712004275538,-0.000454607390973742,-0.0029735684242463267,0.000919069024002596,-0.00249184139607914,0.10868453242049976,0.0005277946985550203,-1.920913268729028,0.00034237628210338094,0.0006482659815547524,-0.00012458842267606336,0.7939263310793684,0.7988506982646054,0.7962793287674558,0.7912303731595428,2.0,0.0,2.0
4.449999999999992,2.1604246960012414,-0.10428646471445073,1.7470941361667534,-0.7097975404616985,-0.0028056436344009797,-0.16210589016445898,-0.000821758948792992,0.0028330177379495293,0.0009443566072674434,-0.007236388135807846,0.11613841902549162,0.0005272783277198224,7.137830754277227,-0.0007367545107796193,0.0003759436566259051,-0.00012739906558202523,1.9087022414302206,1.911530416179167,1.9172614581025709,1.914305884288042,2.0,0.0,2.0
4.499999999999992,2.2995042439005577,-0.09134321243110782,1.824744293642904,-0.709070702633321,-0.002414950927599087,-0.11038607619682672,-0.0015129289689558376,0.008949257159753256,0.000975638378726701,-0.013707579608684258,0.12233780136163278,0.0005861239755485454,-0.694493319507417,-0.00035354131664256766,-0.001723068438295683,-0.00013331779667499652,1.1069774115786728,1.0936563800780605,1.0964425875659563,1.1096303012698934,2.0,0.0,2.0
4.549999999999992,2.1096256077559694,-0.2231114244287809,1.8116051396959993,-0.7060295362050795,-0.0018073580916798393,-0.036825768225470235,-0.002253519802390461,0.014533234541437049,0.0010104981256686962,-0.014701516323466989,0.11169399323261615,0.0005643409529746989,1.3208866701707884,-0.001519864471575385,-0.0001243461220536584,-0.0001363273804316265,1.6001883711204137,1.5991636987990159,1.6109231276551963,1.6118114725961625,2.0,0.0,2.0
4.599999999999992,2.0758903771033714,0.07569790253829582,1.9351821897935186,-0.6993678254266822,-0.0007748282932385636,0.0030849619481809754,-0.004197805617487238,0.01946497459665806,0.0010690380543672703,-0.03877913143467525,0.09867458696697745,0.0006054689274416116,-2.471454172362114,0.0022590340548551,7.230858037174964e-05,-0.0001445713119014052,0.6658830823316138,0.6663670165246764,0.6490621171432802,0.648433611638316,2.0,0.0,2.0
4.6499999999999915,2.1392854664379417,-0.014350578317581925,1.905063572334542,-0.6926253791869552,0.00044544914358370796,-0.07059178392351484,-0.005484024734886296,0.02443871183387754,0.0011234832248539584,-0.025610660773982347,0.09950250226899418,0.0005879575906434053,1.339236446519957,0.0011324456006567374,-0.001080036266044133,-0.0001499495309367041,1.6186561446538807,1.6102731986111498,1.6016370533715663,1.6098700498833602,2.0,0.0,2.0
4.699999999999991,2.058540323227001,-0.15077800150178433,2.078696627647959,-0.682074980844396,0.0028305252426920335,-0.10682823858278123,-0.005300401323975186,0.028990724818099955,0.0011450539562715939,0.0037732436538469656,0.09103608619928164,0.0005209246192519943,-4.088959756987599,-0.0010473627693673407,-0.0005601666993240528,-0.00014961341658426347,0.25122363306861845,0.24683985175014128,0.2549712951458745,0.2592054630477673,2.0,0.0,2.0
4.749999999999991,2.0000909914541953,0.08507436600734422,1.8164062691802807,-0.6736921903761495,0.004650412573456025,-0.2652518856076336,-0.005410880398284232,0.03295232847519184,0.0011777488468653929,-0.00211767237582046,0.07923455347094695,0.0005896693320282967,7.255417298280658,0.0014234963586210135,-8.448660484455743e-05,-0.0001560967556316684,1.9187889586637756,1.9180610133256173,1.9071890897140404,1.9077609382965672,2.0,0.0,2.0
4.799999999999991,2.06473503174926,-0.19875829897882025,1.8732811193123784,-0.6590834846158522,0.007075946109598823,-0.3076055942420286,-0.004956647490441249,0.036708248052656246,0.001194086032258336,0.009167066880371387,0.07510771507271771,0.0006258886030076062,-0.1302487852164247,-0.0016672871956951872,-0.001051288504957202,-0.00015941309253064557,1.2404084312354189,1.2322418900356364,1.2451468827026342,1.2531540108098858,2.0,0.0,2.0
4.849999999999991,1.9575211541843107,-0.02177119591302939,1.7125631813740076,-0.638516926137771,0.01015776061304454,-0.20433739856304367,-0.005080091379323439,0.0400269579342313,0.001222296051357118,-0.0023876553221502525,0.06637710160650842,0.0004734607123266985,5.004396874848176,0.0004147645851914752,-0.00023280801531661962,-0.00015631499732232594,1.9154797425974388,1.9136107542117269,1.9104984149012225,1.9122110882896124,2.0,0.0,2.0
4.899999999999991,2.0487722468406586,-0.00821879448732733,1.7866309263083626,-0.6144222910736019,0.013260516365673387,-0.07569872838344871,-0.00510184028643603,0.04292926788135797,0.0012508348071520788,-0.000363629072555693,0.05804668695512484,0.0005532658842745965,-0.4929376261360451,0.0005121697367062525,-0.001327318979169521,-0.00016278694474964982,1.1591812468016987,1.148889707335712,1.145031333602654,1.1551600861238909,2.0,0.0,2.0
4.94999999999999,1.8897210351155331,0.009426862173886412,1.7331794896706103,-0.5906820692654335,0.01620405916999329,0.00813662647129565,-0.005660815388995613,0.04521411972300904,0.0013026504786882288,-0.01111093750335811,0.04571110449158089,0.0005564703224762898,2.523175246216775,0.0010747392037212128,0.00016828582995384153,-0.00016872108636751322,1.9096223509556602,1.9108324967967367,1.9026496326959115,1.901270765768467,2.0,0.0,2.0
4.99999999999999,1.805099116541223,-0.0028327864841964394,1.9394942057114595,-0.5638960147947847,0.019515578388361182,0.1197279798438311,-0.004747243218403075,0.04711777837102862,0.0012861160848474196,0.01830077921801611,0.03804974255177881,0.0004951229851466573,-4.602548225680114,2.9661901401511944e-05,0.0008203232511035188,-0.0001643511512018014,0.12166302617661043,0.12789102945565198,0.12774503655893357,0.12135268212869021,2.0,0.0,2.0
5.04999999999999,1.721859598874408,-0.07130673608775506,1.9219830892907537,-0.547758350477201,0.021527479758254725,-0.01495147785804729,-0.0036068982145026456,0.04941189994783928,0.001262488137777325,0.022838115872266404,0.04585370874636129,0.0006016056195539512,0.8742203123234102,-0.0008543800070310992,0.00105044689466128,-0.00016607630659018808,1.4865703398432988,1.4945676624181674,1.5012228544717017,1.4930594555902426,2.0,0.0,2.0
5.09999999999999,1.9530584171665046,-0.002847796562390272,1.92406352691117,-0.5311545534489381,0.02275213850444253,-0.1682842244895566,-0.0028172603833282336,0.05239322484426304,0.0012505740758172934,0.015846421459087066,0.05960684707021596,0.0005416504636303156,0.6954118987051823,-5.243431995980598e-05,-0.0019922202036820776,-0.0001622809305437561,1.456654259846325,1.4412483485834986,1.4417328299715384,1.4569764603038207,2.0,0.0,2.0
5.14999999999999,1.7976474092446297,0.0391283216471229,1.8152184706391963,-0.5023076150863481,0.024534353036733993,-0.09441706798930305,-0.002372678321760393,0.05495048414550792,0.0012516123891539658,0.008942203382044699,0.051134146479400455,0.0004863371430751418,3.6186797864287454,0.0005283674437482291,-0.0007114691411429179,-0.00016012657996985848,1.917758633894574,1.912205731057336,1.9082214293954112,1.9136142056526795,2.0,0.0,2.0
5.1999999999999895,1.7099588336037466,-0.0051336052207132206,1.9818459894503582,-0.46692447974001183,0.026203458687225997,0.06967034232563396,-0.0016911201417843184,0.056510995035383135,0.001246264427119491,0.013648473215856754,0.03119341435932564,0.0006416790974835937,-3.7932600007609425,-8.73167286242925e-05,0.00029649905509979987,-0.00016590451481849142,0.3255502613856841,0.327748071090581,0.32850269049125413,0.32613897627153865,2.0,0.0,2.0
5.249999999999989,1.7958944658091065,0.003239404668414537,1.647332279471438,-0.4448334570011081,0.027113664284943745,-0.021281960199956984,-0.0010323731004136737,0.05800674414253852,0.0012316818174360339,0.013190068426546714,0.029898811740203497,0.0004524589272545405,9.060135613415602,-4.735105774767269e-05,-0.0008074210522579652,-0.00015650393721088212,1.9159124721170346,1.9096232889772142,1.910065779851571,1.9161984590541807,2.0,0.0,2.0
5.299999999999989,1.7214094760527887,-0.016213563738548906,1.821156260794329,-0.4181703850117291,0.02762460189379582,-0.05120203896888942,-9.759741840369668e-05,0.05927505706668249,0.0012039507277198129,0.018693924232167078,0.0253437584418683,0.0005292276803472386,-2.9868135688983743,-0.0004803223026979542,-0.00028449672621329276,-0.00015654983781564032,0.5278825699406887,0.5256158586662939,0.5293889205290322,0.5314990819656112,2.0,0.0,2.0
5.349999999999989,1.782329872516038,0.024629133155789146,1.7647128804935808,-0.3923331772667016,0.027965067801751203,-0.09966819315395004,0.0001916778995553461,0.060166946181121034,0.0012119469867771786,0.005796511555068427,0.017830865981916542,0.0005026521822165269,2.572684204293494,0.0002695034663169598,-0.0009372154653159117,-0.00015635437080592916,1.917630315252828,1.9103427883342257,1.9083478619325753,1.9154790344803716,2.0,0.0,2.0
5.399999999999989,1.7332185724339713,-0.12603357970605195,1.859409203468198,-0.36256938091929314,0.02789594779057422,-0.09482896326311163,0.0005793860793111897,0.060607560609974735,0.0012152219669153868,0.007750601560512685,0.008802991947407978,0.000531762011670964,-1.2630163172168363,-0.0012764248564188518,-0.0004740941313731643,-0.00015791608699248293,0.9564995123135174,0.9527736763363812,0.962671287121561,0.9662392070117045,2.0,0.0,2.0
5.449999999999989,1.6880946261839382,-0.14840781996230015,1.7180835935877163,-0.33035203738886576,0.027699618164328862,-0.0522500750311794,0.000515108358520627,0.06054890816198953,0.0012465455169383157,-0.001284623171170192,-0.001171486224838798,0.0005486043829123745,4.564391450166773,-0.0012209135825010753,5.701149650526127e-06,-0.00016211525101019627,1.9082727798429389,1.9082355772147457,1.9177082777825665,1.9175833651597496,2.0,0.0,2.0
5.4999999999999885,1.7166944159999975,0.02754334782983064,1.9066319196876809,-0.29579170464201443,0.02736476416204118,0.026957565597465205,-0.000587163784337769,0.06029844450708074,0.0013373498558409331,-0.022011604403333433,-0.004981104628131754,0.0004820892957760834,-3.862737494818767,0.001186095221361112,-0.0004073651381281613,-0.0001695535490046743,0.3157867083729029,0.31256835361279933,0.3035293209922162,0.30657812220331504,2.0,0.0,2.0
5.549999999999988,1.6898478815535336,0.12007204811646326,1.839084558221534,-0.2718246505504762,0.02723369640035533,-0.06774429917482117,-0.001640530158907316,0.059971594336357695,0.0014303398546105523,-0.021038177217063397,-0.006508206392295477,0.0005902560910150944,2.5161904109074467,0.0021460296251736132,-0.0002626973929305242,-0.00018440734667342137,1.9136580392485463,1.9115450863988206,1.895129369878514,1.897057915381566,2.0,0.0,2.0
5.599999999999988,1.6917178833857713,-0.05108775107564612,1.7174505721494604,-0.2444333351892647,0.027967767950713655,-0.10259867174921222,-0.0011849752369778495,0.059431308352967414,0.0014300021349603418,0.009079548962125088,-0.01081859340535695,0.0005393240650488898,4.114674684473702,-0.00042847785718216723,-0.0003197384766147596,-0.0001822787538053956,1.9125773413016538,1.9100266751815607,1.9134137980752493,1.9157821854415369,2.0,0.0,2.0
5.649999999999988,1.6181975769847716,-0.11986814224032931,1.8474967632234989,-0.20063244766883148,0.029014691804968695,0.1398049521824829,-3.7949603642418595e-05,0.05859290726819363,0.0013919073934251641,0.02287715250681157,-0.016799973113761545,0.0006006962363426897,-2.4459205533951724,-0.0015970018076531722,0.00029691438849025403,-0.00018053204296697813,0.6565807015998586,0.6587743924129157,0.6711492877240388,0.6687750648680149,2.0,0.0,2.0
5.699999999999988,1.7615660568502847,0.06311549139509877,1.8259240689472076,-0.17275444914889082,0.02937632210990148,0.12008636046710208,-6.52247226138733e-05,0.05776940956586695,0.0014188228724460342,-0.0005675166838086324,-0.016469179634951904,0.0005063558567222276,1.1787149489226587,0.0008632234559394638,-0.0012377968240050272,-0.00017967348593641905,1.5781045028327048,1.5684931520589285,1.5619428083715932,1.571374485659433,2.0,0.0,2.0
5.749999999999988,1.57256846193462,-0.22376276678636597,1.8119289237369456,-0.14683565018530853,0.029394112624256848,0.07586146129701099,-0.0001524271896455997,0.05663245378596117,0.0014462145694694036,-0.0017735154470052395,-0.022736617796293553,0.0004471189767852445,1.1515691271093513,-0.001856844392150705,0.0006691161550954459,-0.0001803092663573334,1.5535221262199035,1.5585790189336128,1.572952591967951,1.567715389987884,2.0,0.0,2.0
5.799999999999987,1.4803597121053431,-0.033103258822800775,1.8753032800820586,-0.11242172265548689,0.029451011370897652,0.18663765544561617,-0.0006902630074859859,0.05526873174715271,0.0015073468132291972,-0.010779734845269994,-0.02725871599728003,0.0006137679801146153,-1.12527908921136,0.0002964486597725188,0.001545977909540509,-0.00019399617084608006,0.9892228450099948,1.001017984690268,0.9988346084697485,0.9868454726186292,2.0,0.0,2.0
5.849999999999987,1.5190333746536215,0.08806461624783456,1.8375768562485022,-0.08552123893915464,0.029614589198323667,0.17626408079042477,-0.0020258164375622427,0.05477432651798437,0.001607376987774898,-0.026685885224162726,-0.009846907062582684,0.0005250914857873006,1.395416043470431,0.002059077773423331,0.0004929206350929178,-0.00020155789605957612,1.6302280816428936,1.6339189998878862,1.6181807190403519,1.6142882428992995,2.0,0.0,2.0
5.899999999999987,1.6002250930524644,0.019159089634012277,1.7372246291043325,-0.05723086176746328,0.030464061364561257,0.2005469201848742,-0.0023194997169384175,0.054993277075734044,0.0016506807503439225,-0.005857739847903391,0.004388479563987874,0.0005445106308740986,3.259563180085156,0.0008146612190299973,-0.0009535524897619508,-0.00020720444619346076,1.9198026230684406,1.9123640016933288,1.9062009791546566,1.9134323960835746,2.0,0.0,2.0
5.949999999999987,1.700737468878855,0.08511058870056842,1.7546594035696723,-0.01958751135308745,0.03200883326113707,0.3948262070647912,-0.0010905629155832904,0.054931055290773585,0.0016098722181436518,0.02453957695404771,-0.0012841155426097021,0.0005348378519421238,0.11439798477186941,0.00045064411945903386,-0.00204641788592202,-0.000202237416344792,1.3135541401831348,1.2977113454294082,1.2943459709109728,1.3099865282483543,2.0,0.0,2.0
5.999999999999987,1.6542616899073657,-0.16312937749905085,1.8872631451099304,0.013787546290662256,0.03308446406432533,0.5104443779437418,0.0005117101731385205,0.05379923432050689,0.001552828213865546,0.03196263700351979,-0.022686497035005207,0.000618546696665738,-3.3629107599268435,-0.00230099364687428,-0.0011254341107016636,-0.00019928559116333557,0.4301007485846469,0.42134392032212936,0.43914351424751324,0.44770105691886736,2.0,0.0,2.0
6.0499999999999865,1.6717772345464603,0.03738945206660743,2.0462742133435556,0.031151459576612694,0.0332619935719642,0.3369074275677031,0.0012480383598666277,0.05159679131811184,0.0015433310201154462,0.014638583350870732,-0.04407135321584165,0.0006018866891597475,-4.392279173234273,7.488802042934995e-05,-0.0005950385970130811,-0.00019753814641052135,0.17985623206435142,0.17518024301412244,0.17470295039171735,0.17918140129553578,2.0,0.0,2.0
6.099999999999986,1.6007433339880932,-0.07667417978760656,1.7157524214854667,0.03715042196336338,0.033148532130636704,-0.04099048312771636,0.0010982841628551646,0.048755404320233356,0.001580776115843661,-0.0030792375636282906,-0.056823043796931684,0.0005943088949535368,8.928755719558993,-0.00048812816244318184,0.0006831741780833276,-0.0002014203798777478,1.9084953460929446,1.913649821888262,1.9175053640969948,1.9121494679217992,2.0,0.0,2.0
6.149999999999986,1.660996035715664,-0.03927953539893585,1.9529692590703895,0.05844816382501339,0.03265701814382849,-0.0966688846837771,0.0006921886959185643,0.045997325204359917,0.001624449343853786,-0.00820053775661568,-0.05514860772559075,0.0004775153638202677,-4.9603345229721105,5.726568964251615e-05,0.00014203163243125988,-0.0002015167381949479,0.03494072558464142,0.035932518234245946,0.03559277129840099,0.034399461910601524,2.0,0.0,2.0
6.199999999999986,1.76858784986599,-0.02372271628173703,1.982562190762964,0.07492463038907715,0.03228858487370152,-0.24906154085136745,0.00014095808494983973,0.04353138834825001,0.0016842912566716257,-0.011094302781686409,-0.0493006404623756,0.0006898190842830292,-0.043223724741840885,0.0003410346235388597,-0.0009674795991054743,-0.00021693328272907802,1.2695810491453927,1.2620304317416782,1.2595155551250516,1.2668492392460369,2.0,0.0,2.0
6.249999999999986,1.7171057848509594,0.037671073330702465,1.8550662049118556,0.08684891320566379,0.03225188340892943,-0.46622062889214,-0.00018675563329818086,0.04071029377476129,0.001728077997348048,-0.006643891616072507,-0.05641073454313661,0.0005903749367637261,4.148758166383603,0.000831469174980511,-9.28752683530981e-05,-0.00021775454961448775,1.9165596095733024,1.9157363071573172,1.9094492677015054,1.9100548155678756,2.0,0.0,2.0
6.299999999999986,1.6853629657889633,0.1549431751731461,1.9682303617484807,0.11286028914477164,0.03230683098593201,-0.3337584987562181,8.275334206343108e-06,0.03756219524059843,0.0017490381709772491,0.003789077967742631,-0.06296859705272162,0.0005777851167254203,-1.7425186125971721,0.0016356925070824693,0.000494348269386336,-0.00021958496753413277,0.8441150286221911,0.8478079151337036,0.83533545756299,0.8314229860839436,2.0,0.0,2.0
6.349999999999985,1.7083486372920746,0.04878827569757646,1.933282631386532,0.13299761053631176,0.032408181629113436,-0.31593498709731715,0.0012103526021062315,0.03457991948596459,0.0017357125981784325,0.02392292127415301,-0.05968690613890004,0.0006362026895635814,1.7943312082596217,-9.25135643717791e-05,0.0002949075850750369,-0.00022049075485292485,1.7224478434095927,1.7246061179173586,1.725428006097645,1.7230492408350258,2.0,0.0,2.0
6.399999999999985,1.639632532902152,-0.14372055666532918,1.6414958529943162,0.15105612979103622,0.031984736996562776,-0.29681072415802756,0.003149453935750337,0.03189391617376346,0.0016983613369998586,0.03866914444509027,-0.05378596638157199,0.00059373054516542,8.100587632132454,-0.0025665847540006443,0.0008904835959884417,-0.0002145644662069006,1.8997072243858246,1.9064498159680168,1.926300057847279,1.9193429017988801,2.0,0.0,2.0
6.449999999999985,1.6435874704562445,-0.06968883470593784,1.9689574085816128,0.1742548322742854,0.030305881689128983,-0.08456038090522977,0.003920010585140662,0.02963671465272429,0.001704325423885459,0.015327711814542271,-0.04516993828594023,0.0006106444428481631,-7.129304661704091,-0.0012496396849616966,0.0006251511062293256,-0.00021592667684198892,-0.5141829175690853,-0.5094820262442037,-0.499761449944539,-0.5046782679462625,2.0,0.0,2.0
6.499999999999985,1.7673580762090357,0.12390226010373427,1.9543027411458993,0.18162210148642277,0.029636773425327778,-0.3514183316619768,0.002735516311827871,0.027898266349384356,0.0017699997376402507,-0.023739925287778123,-0.03472814038653248,0.0006114702828016179,1.2970068139622324,0.001873588215238463,-0.0007716062028672193,-0.00022331514192864196,1.6097813569610624,1.60373426706035,1.5894337075910183,1.595257482349802,2.0,0.0,2.0
6.549999999999985,1.7217037506639195,0.025737142337686626,1.714146575011467,0.1884635195235118,0.02906827326309494,-0.5914258011877038,0.002048984388174845,0.02603075390663211,0.0018192243991390759,-0.01379209895249868,-0.03732576389671714,0.0006014279582566502,6.85677593896602,0.0006937750939515517,-0.00013504357042841867,-0.0002284153451268617,1.916194867930051,1.9150418635618842,1.909819339742513,1.9107439287655525,2.0,0.0,2.0
6.5999999999999845,1.6689578115984205,0.0011507132142709112,1.5430131120586505,0.20672879295041025,0.027513853453248333,-0.400689402407175,0.0026031812267052206,0.02392815217399707,0.001835106351186128,0.011004267988060612,-0.04207204357627864,0.0006060553922814047,5.408445470590818,-0.000338830115144935,0.00056483453919919,-0.00023038384923756188,1.9095319626763707,1.913761651822515,1.9164832292482485,1.9120231562528665,2.0,0.0,2.0
6.649999999999984,1.6277948579625554,-0.11921635343329491,1.8466969454483635,0.2250150636613535,0.025789118127799437,-0.15552287642183416,0.003199172095707692,0.021996267876039026,0.001850161367749626,0.011846031907968412,-0.03865940480361359,0.0005862307828358052,-5.87871606159453,-0.0015925649306010882,0.0008962562146464839,-0.0002312559857679085,-0.20389359042237343,-0.19711493984105366,-0.18474881238200752,-0.19175871894909519,2.0,0.0,2.0
6.699999999999984,1.6578820718213063,0.32994085959943587,1.6963376080595534,0.23202852982327826,0.025026301552547175,-0.3562458055254414,0.0028883237035794915,0.020549803153514984,0.0018865509295472056,-0.00626917488515027,-0.028917723718117624,0.0005910151399236603,4.8102658130504095,0.003292387491817659,0.0003983225423017953,-0.00023552748444353197,1.9241399009077107,1.9270861567216564,1.9018778628345114,1.898696079536122,2.0,0.0,2.0
6.749999999999984,1.6086180897980802,0.09795943590665618,1.7426309343493012,0.23958622203285262,0.02400023799157172,-0.47585262547745977,0.003540328096141645,0.01959357389645162,0.001903590063665902,0.013001488271662476,-0.019149059834891756,0.0006087258867944048,0.25150673274003266,0.00041975814927701127,0.0006140827171242286,-0.000238162649517215,1.33748882166336,1.3420934535472493,1.3389836260314154,1.3341408314980088,2.0,0.0,2.0
