time,x,y,z,vx,vy,vz,roll,pitch,yaw,p,q,r,delta_thrust,roll_torque,pitch_torque,yaw_torque,f0,f1,f2,f3,target_x,target_y,target_z,distance
0.0,0.0,0.0,1.0,0.0,0.0,0.0,-0.0,0.0,-0.0,0.0,0.0,0.0,-6.882976106454809e-16,-0.0,-0.0,-0.0,8.853525,8.853525,8.853525,8.853525,0.0,0.0,1.0,0.0
0.05,-3.9619175526518905e-12,1.384037181225041e-13,0.9999999267165233,-7.923835105303781e-11,2.7680743624500824e-12,-1.4656695346282334e-06,6.245834405227409e-10,1.7879137781395826e-08,4.9927644536715663e-17,1.2491668810454817e-08,3.575827556279165e-07,9.985528907343132e-16,1.1097377600767363e-05,-2.5408613321403854e-08,-7.273393252818064e-07,-4.658202860757937e-17,8.853530474077907,8.85352487916002,8.853525074610893,8.85353066952878,0.0,0.0,1.0,7.328347683863875e-08
0.1,2.2668458789088435e-10,-7.9189193263581e-12,0.9999999292469647,4.612930108870725e-09,-1.611464608896121e-10,5.060882823926249e-08,2.282936784059336e-09,6.535068336477325e-08,-1.3010689068968556e-16,3.3167066870731926e-08,9.494309116675485e-07,-3.0076921461414413e-15,8.106063090037609e-07,-3.6,3.6,1.38036633635846e-16,-18.83878248965612,8.853525202651577,36.54583289495927,8.853525202651575,2.0,2.0,1.0,2.8284271245915003
0.15000000000000002,-3.1930346519671712e-06,-3.194617641781905e-06,0.9999999779724121,-6.386522673110125e-05,-6.389219445725156e-05,9.745089490920122e-07,-0.014418129665502488,0.01441677878491908,0.00010393551992956818,-0.2883626386970969,0.28833426882056457,0.0020786915525929013,-6.225596386357103e-06,-3.6,3.6,-9.697010107209916e-05,-18.838760006181523,8.853499201075635,36.54585537843387,8.853499201075635,2.0,2.0,1.0,2.828431641498443
0.2,0.00018227475053577888,0.00018226908983987261,0.9999977932211895,0.0037093557037549208,0.0037092741496330905,-4.369502445200624e-05,-0.05509790514254994,0.05501472211726452,0.0015163656914236876,-0.8129502122143848,0.8122817118084734,0.016513144946989786,0.00033119823905856173,-2.7242495149373727,2.7259112353824784,-0.0008476798025147829,-12.108337012489034,8.859787112090313,29.81597645150982,8.84700464712796,2.0,2.0,1.0,2.8281693533254817
0.25,0.0012636226463638846,0.0012636092513155818,0.9999543906412873,0.021626957916562113,0.021626803229514185,-0.0008680515980441506,-0.1189085179271004,0.11808367700169194,0.007036862593617834,-1.2679338146499888,1.265528957886962,0.040142572664146406,0.006608438054094513,-1.5295628031376105,1.5387297236515833,-0.002435889129197033,-2.9453390212395383,8.889825523823427,20.656911184831184,8.819310750639021,2.0,2.0,1.0,2.826640102301676
0.3,0.004538211738396576,0.00453810197679961,0.999694635298906,0.06549178184065382,0.06548985450968056,-0.005195106847626363,-0.19924564670708353,0.1954590641719121,0.019596325403145532,-1.5699000696994327,1.5660592691145123,0.061535774205429265,0.04007795834874994,-0.4691171743696542,0.4987371173220618,-0.004720562172926445,5.14220812362382,8.976287206553215,12.58724113663702,8.748441491534697,2.0,2.0,1.0,2.8220092182914907
0.35,0.011735016346737084,0.011734011763292874,0.9987821778038604,0.14393609216681016,0.14391819572986528,-0.018249149900912975,-0.2894797815736169,0.2783005959738007,0.04080612950264985,-1.7081097074759817,1.7058339299449505,0.07298660177044276,0.14314884754961674,0.41059347495487497,-0.33884777593896104,-0.007565810031835778,11.77367001398704,9.163365755594498,6.008737314803686,8.611475763164393,2.0,2.0,1.0,2.811832279545048
0.39999999999999997,0.024799137992021436,0.024793299312285685,0.9964519930948269,0.26128243290568703,0.2611857509798562,-0.04660369418066912,-0.3839215219090137,0.35915705313607704,0.07045475562391532,-1.7056813176236318,1.7110438099986913,0.07325769102954635,0.37270197984027004,1.1235993358091647,-0.9827384537314762,-0.010897151502072827,17.050723973376513,9.485748830460276,0.84812559229466,8.402203583708825,2.0,2.0,1.0,2.7933622292985394
0.44999999999999996,0.045700426564377186,0.045675892318916424,0.9916418146635154,0.418025771447115,0.4176518601326148,-0.0962035686262297,-0.4771547737782415,0.43250420505810355,0.10647837649281786,-1.5880003994570822,1.6103881928463302,0.06457764883282166,0.786214451054889,1.685713022868005,-1.4539825746472055,-0.014574952969136502,21.129474649141432,9.937705829216823,-3.0220299471294196,8.155163919826055,2.0,2.0,1.0,2.7638269482469844
0.49999999999999994,0.07630351493770751,0.07622131590162287,0.983107920493103,0.6120617674666065,0.610908471654129,-0.17067788340824785,-0.5635031478385097,0.49490954267849224,0.14520142964622373,-1.378397490822639,1.4300946626775322,0.05060728304314616,1.2099450767292397,2.104627298647311,-1.7792555564573302,-0.018337882244694136,24.09860672091518,10.402856576274907,-5.777415241428214,7.899997020967364,2.0,2.0,1.0,2.7206282242126303
0.5499999999999999,0.11826324607813991,0.11803097426264085,0.9695239636503313,0.839194622808648,0.8361931672203595,-0.2716791368554339,-0.6370601452198419,0.5448834597633294,0.18188752316480217,-1.0985093344492294,1.1928642840750698,0.03517452769522143,1.3371160638494692,2.380865417609229,-1.9883962868160456,-0.021812670305747385,25.998109892866783,10.69184750528279,-7.611595525789175,7.672854191489071,2.0,2.0,1.0,2.661516374867303
0.6,0.1729017817843726,0.17232946554211254,0.9495261330653988,1.0927707141246537,1.0859698255894337,-0.3999566116986508,-0.6922581478908504,0.5823806451301942,0.21158171413815832,-0.7692999201394295,0.9173781603898323,0.021520199807487653,1.5008857937217877,2.5122793834669817,-2.109893847858255,-0.024577472300153863,27.012480167756397,10.770238755773589,-8.542698534745426,7.674965404937228,2.0,2.0,1.0,2.584804652730189
0.65,0.24121232535868292,0.2399520290220956,0.9219125020771658,1.3662108714862065,1.352451269599661,-0.5522726197646599,-0.7246814990412065,0.6080427954533667,0.23004210716043405,-0.41173722313821726,0.6182351049494708,0.011935445229977377,1.6985305452778987,2.5026008451757416,-2.168677236397883,-0.0262513100302718,27.2511746237256,10.555916381034443,-8.681733696071513,7.987273236589371,2.0,2.0,1.0,2.4894177234738044
0.7000000000000001,0.32392751107685974,0.3214006331027566,0.8858524371545007,1.6543037143635364,1.6289720816132207,-0.7212012984533023,-0.7317674580359653,0.6224118184818666,0.2344982480903484,-0.046535620740411524,0.3062937635310591,0.007684427909642152,1.922217315522197,2.36672000415305,-2.1833553704951125,-0.02657582735350605,26.841013188211857,10.032683963034238,-8.159566616774006,8.622186781050106,2.0,2.0,1.0,2.3748567301579273
0.7500000000000001,0.42154246692293285,0.41686467441464087,0.8409666700316536,1.952299116921462,1.9092808262376848,-0.8977153424569417,-0.7131949799072812,0.6253797720892649,0.2240997247062628,0.3070736361713367,-0.010649430513725435,0.009117007702101526,2.161912246474502,2.130268196558149,-2.1632155817834278,-0.025470152359135086,25.91376974717601,9.260914811123921,-7.113028547759194,9.514356235933759,2.0,2.0,1.0,2.2412356509043896
0.8000000000000002,0.534321395404959,0.5262392752621372,0.7873607173933395,2.255578569640524,2.1874920169499266,-1.0721190527662827,-0.6709421816529216,0.6160546756898585,0.20005732723684425,0.6328981491036436,-0.326761437252022,0.01587688755765727,2.4064244718539287,1.827267480983984,-2.1090028099821265,-0.02305524978375211,24.600396049509843,8.36576988629392,-5.6786061886910035,10.53296472474117,2.0,2.0,1.0,2.0893539456623933
0.8500000000000002,0.6622815970367272,0.6491371111340066,0.7256149738718678,2.5592040326353627,2.4579567174373884,-1.2349148704294333,-0.6090033804967461,0.5930533033152612,0.16546530278964083,0.919138621748984,-0.6369187306818382,0.027112032518605236,2.6444081821143697,1.4959692534640017,-2.016388177140651,-0.019642653858528456,23.02860474978035,7.50810513715377,-3.989529331793902,11.51132762697415,2.0,2.0,1.0,1.9208352903633674
0.9000000000000002,0.805156690458709,0.7848941364811359,0.6567356141944843,2.857501868439636,2.715140506942586,-1.3775871935476691,-0.53270512135802,0.5550616306229781,0.12473634916977196,1.159261466040783,-0.9357582396300095,0.04165186438118699,2.8653011633712753,1.173087128948382,-1.880521764860685,-0.015678469755314294,21.318419499854983,6.8450282275874414,-2.1708796832916866,12.286833119220539,2.0,2.0,1.0,1.7383794845993632
0.9500000000000003,0.9623473278046133,0.932572404330115,0.5820709099992559,3.1438127469180865,2.9535653569795817,-1.4932940839045683,-0.44767479594490167,0.5014005488803005,0.08269517687562235,1.3521376695227147,-1.2173019497230373,0.058164420491598534,3.060185496087896,0.8872482721465752,-1.6997592362367826,-0.011648317176671587,19.57151233171367,6.490617125150086,-0.32854542508138795,12.740701464305525,2.0,2.0,1.0,1.5462177933204198
1.0000000000000002,1.1328716477390068,1.0909640862917516,0.5031985473363518,3.410486398687871,3.167833639232731,-1.5774472532580819,-0.3587658365607544,0.432359936418973,0.043626584335989815,1.5012831183304034,-1.4751676635152635,0.07530633411416442,3.222543538238078,0.6538198182519824,-1.4772080245081072,-0.007976885416796226,17.85741603960637,6.4902889468356095,1.4648941722210662,12.824044379575032,2.0,2.0,1.0,1.3509513518535619
1.0500000000000003,1.3153286339558206,1.2586004203636445,0.42179129977317176,3.6491397243362744,3.3527266814378587,-1.6281449512636015,-0.26933923628971546,0.349218916809474,0.01066757786336863,1.613264865686772,-1.7031440820338006,0.09185173006748712,3.348862732496104,0.4734250192907888,-1.2200261077205086,-0.004965150872912737,16.20525553627032,6.817956747599182,3.178708405414187,12.561042043212412,2.0,2.0,1.0,1.163087923238723
1.1000000000000003,1.507885679891197,1.4337684726611704,0.33947052434082026,3.8511409187075296,3.503361045950517,-1.64641550864703,-0.18108978942372145,0.254042426107389,-0.014279689729719287,1.6956607344895638,-1.8958126124041166,0.10677316258593875,3.4390331412112234,0.3346115432113779,-0.937558522078918,-0.0027839499623292805,14.60694106237145,7.393560456013993,4.821017483215328,12.031614139610456,2.0,2.0,1.0,0.9995468147231544
1.1500000000000004,1.7082977713841045,1.6145378277795124,0.25765877923506925,4.00824182985815,3.6153871023668405,-1.6362349021150202,-0.09429932301121595,0.14941193133504307,-0.03024241828845525,1.755143494850298,-2.0489779613467065,0.119264336561697,3.4964865458878363,0.218958456176398,-0.6396214002384567,-0.001509123468745255,13.030254134319353,8.109334955366084,6.425793700358935,11.34520375584346,2.0,2.0,1.0,0.885856514588669
1.2000000000000004,1.9139607731281787,1.7987986129158198,0.17744394650207482,4.113260034881483,3.685215702726148,-1.6042966546598887,-0.008265929059110427,0.03820349895365237,-0.036739712683345374,1.796152392874101,-2.159842435644172,0.12872228355188836,3.5280422077683227,0.10628726798438756,-0.33564190030069363,-0.001169772609644355,11.435555565421726,8.853109907573106,8.036100424767255,10.617376310006232,2.0,2.0,1.0,0.8511657934100619
1.2500000000000004,2.1219961985833793,1.9843112654407054,0.09946725446312521,4.160708509104012,3.7102530504977116,-1.5595338407789923,0.07828002763522711,-0.07655363889455306,-0.03341649572426024,1.8203168807044832,-2.22699969965222,0.1347212587180051,3.543448989164135,-0.02147498059173643,-0.0346179932965337,-0.001788183906594998,9.790384342132288,9.523197994051806,9.689284244403076,9.95468240857696,2.0,2.0,1.0,0.9088940722906322
1.3000000000000005,2.3293601883521795,2.1687669286783304,0.02384624123163111,4.147279795376004,3.6891132647525016,-1.512420264629882,0.1668377898507228,-0.19176027480065272,-0.019840861534534602,1.8265294659866815,-2.250367587213819,0.13700496379375796,3.5546459559716945,-0.1780268977101175,0.2545515003689062,-0.0034022033989855515,8.07927397030796,10.035661332984672,11.406800109377377,9.447010543301682,2.0,2.0,1.0,1.0439523794908054
1.3500000000000005,2.532965742217651,2.3498554607763267,-0.049859210379099,4.072111077309426,3.621770641959925,-1.4741090322146022,0.258849454468825,-0.30431592188076223,0.004513699547507082,1.8114495704279368,-2.2311429149186597,0.1355066291996747,3.5748016960346014,-0.3715237501271176,0.5228723051841901,-0.006068051571634327,6.308757608781145,10.32781823825833,13.188727265021972,9.163598583973156,2.0,2.0,1.0,1.228273457919877
1.4000000000000006,2.7298050506488356,2.525336276508556,-0.12263399115095158,3.936786168623696,3.5096163146445836,-1.4554956154370515,0.35540013811252785,-0.4112188577298586,0.04010146747641694,1.7702427495242514,-2.171793409877229,0.13038895125957076,3.617229261313658,-0.6038239468741254,0.7615723577197969,-0.00984327987318959,4.50876888685855,10.362096152458854,15.011817383734876,9.148646838261381,2.0,2.0,1.0,1.4383673708256657
1.4500000000000006,2.917058468969872,2.6931062062232907,-0.19594950719470214,3.745068366420732,3.3553985942946962,-1.466310320875011,0.45684929173660094,-0.5097363865108306,0.08696148057176546,1.6974465031477948,-2.076040266855069,0.12208361503509943,3.6942983329382857,-0.8696576694516323,0.9631231267755084,-0.014749980811870646,2.7316301698716137,10.132894616200357,16.829943987003464,9.41392955986285,2.0,2.0,1.0,1.658821169497743
1.5000000000000007,3.092178432823959,2.8512586415141867,-0.2716667423952516,3.502399277081736,3.1630487058179213,-1.5143447040109899,0.5623958112767686,-0.597664678562308,0.1442449179278245,1.587939752404258,-1.9487454401121593,0.11130474162750184,3.8164699954170764,-1.155705160343431,1.12292507940547,-0.02072241370201904,1.0488606417070776,9.67638466105199,18.576785562852468,9.928539129805536,2.0,2.0,1.0,1.8800615169702637
1.5500000000000007,3.2529402212200758,2.998129469414576,-0.35191155008799097,3.2152357679223353,2.9374165580077882,-1.6048961538547868,0.6696906758394163,-0.6736524038404619,0.20975170802780768,1.4380299489020172,-1.795607205841041,0.09901306305219071,3.9915595666420733,-1.4402847545472157,1.2412811997064968,-0.027553640964608304,-0.4554119067664547,9.079128193570448,20.172018510569796,10.609924769268288,2.0,2.0,1.0,2.0961360821583486
1.6000000000000008,3.3974563862320144,3.1323273402795873,-0.4389355024903111,2.890323300238773,2.6839574173002223,-1.7404790480464027,0.7747247788904088,-0.7374884109460993,0.2797193250510734,1.2466211741187019,-1.62259679294695,0.0863200891672506,4.224293734396736,-1.694933919355607,1.3248477767838573,-0.034867942424685876,-1.69622956594643,8.477473207332437,21.53286040435714,11.32428968865359,2.0,2.0,1.0,2.303385538135622
1.6500000000000008,3.5241571257763162,3.252748111396313,-0.5349759001679374,2.5340147908860366,2.4084154223345156,-1.9208079535525258,0.8722012741542979,-0.7901890672502879,0.34908789984458755,1.016281232239282,-1.4351533670101513,0.07434528464813062,4.516179173371722,-1.8887935682334624,1.3864828787879677,-0.04214464094577978,-2.6041111503492034,8.040069442931504,22.590323057507952,11.903997823281465,2.0,2.0,1.0,2.499716741704572
1.7000000000000008,3.6317440267279393,3.3585752774639808,-0.6421267629690658,2.151738019032461,2.1165433213533547,-2.143017256022568,0.9563502412453971,-0.8337442664807507,0.41221839358531753,0.7538675882319177,-1.2372901693448148,0.06406797632271562,4.865651195268024,-1.9949081945850853,1.4427839188455358,-0.04879244814977487,-3.1397568331094776,7.934184780088986,23.30402865481837,12.181294593470135,2.0,2.0,1.0,2.6841936701657545
1.7500000000000009,3.7191285731228714,3.4492694015756205,-0.762229249868844,1.7476909278986419,1.8138824822327937,-2.402049737995564,1.021819826784252,-0.8705270960428819,0.463717725374753,0.47037662346167,-1.0308930794707896,0.05622961933491445,5.268431685306126,-1.9956110778399894,1.5097281574304517,-0.05423785465869296,-3.297881596818184,8.28829299454825,23.666266366800595,12.025853920775464,2.0,2.0,1.0,2.8567878427289877
1.800000000000001,3.785368794798715,3.5245497795520886,-0.8967857558865392,1.3248044335168707,1.5056075595293628,-2.691130120353904,1.0642359583915526,-0.902544784476162,0.4989740895250503,0.17995679715365298,-0.8155135077566824,0.05131915114216886,5.718003258611811,-1.8844053744654818,1.5979476299184676,-0.05798447659152361,-3.0961434676758954,9.166769139555017,23.69118733527756,11.370290251455126,2.0,2.0,1.0,3.0182097288802523
1.850000000000001,3.8296169518817216,3.5843708261988776,-1.0468979234309146,0.8849631416601333,1.19642093293578,-3.002243350887508,1.0803582489314931,-0.9307645606540229,0.5143253968539926,-0.1015844157289033,-0.5888163737703997,0.049619660660702246,6.206107697378107,-1.6644819559011472,1.7093148397300635,-0.059633834310422906,-2.556181138736369,10.562577634339675,23.396101904580632,10.217709297194167,2.0,2.0,1.0,3.1697823607416433
1.900000000000001,3.85108837151658,3.6288942248861638,-1.213226025543907,0.4294283926971687,0.8904679737457233,-3.3265620422598463,1.0681692085182846,-0.9546747220780019,0.5071799768056011,-0.3582865040355526,-0.34761171579968936,0.05125022823380111,6.723202804274422,-1.3467992909584363,1.8357199991307294,-0.0589005868374951,-1.6914079602572736,12.40006481656036,22.78950965581323,8.639136292158103,2.0,2.0,1.0,3.313335780625966
1.950000000000001,3.8490572916223877,3.658456228145241,-1.3959662829174402,-0.04062159788384534,0.5912400651815464,-3.6548051474706655,1.0273897154647311,-0.9721618042332917,0.4765625221182853,-0.5752956954358236,-0.08921343188352958,0.05614288762724239,7.258854412580263,-0.9511985352733491,1.9601571418518162,-0.055672723969306885,-0.5153650509593973,14.534930447454535,21.87967861923418,6.773710396850942,2.0,2.0,1.0,3.4511077000367396
2.000000000000001,3.822880896128453,3.67352831019087,-1.594843566482647,-0.5235279098786982,0.30144164091257863,-3.977545671304137,0.9606387945413617,-0.9797898729446406,0.42429364066256553,-0.7400831289081199,0.18720329579866113,0.0639512059770689,7.802082059673339,-0.5115499213820516,2.0601614743729852,-0.05013990604097616,0.9253828154476678,16.74770881914245,20.70777816740949,4.8353122576737295,2.0,2.0,1.0,3.58563870196047
2.0500000000000007,3.7720484919636674,3.6746693990158588,-1.8091187518356795,-1.016648083295708,0.022821776499775126,-4.285503707060649,0.8746200399660515,-0.9735778368047973,0.3561923556156607,-0.8441350623747337,0.4795846596579939,0.07396076340347123,8.341699542834938,-0.08029733749139457,2.1136832933075156,-0.04292445155068638,2.5112939570621355,18.74893398749845,19.388068040130676,3.107503558143674,2.0,2.0,1.0,3.7196534268377333
2.1000000000000005,3.6962494652469005,3.662469830052054,-2.037611483117274,-1.5159805343353394,-0.24399137927609615,-4.569854625631886,0.779755905688738,-0.9501652434829846,0.2817437802768322,-0.8853330566078177,0.7826655579534201,0.08511665152385212,8.866685341632712,0.27759276782640047,2.106216642434522,-0.0350452504130222,4.0457888995186595,20.2299327545777,18.112126396504205,1.8929372910321436,2.0,2.0,1.0,3.8559242350634464
2.1500000000000004,3.595451651735466,3.6374911878925573,-2.278739276023034,-2.015956270228685,-0.49957284318993267,-4.822555858115205,0.6872658411211413,-0.9078302023249766,0.211249428745715,-0.8701512015129821,1.0885793387153357,0.09624207549042532,9.366587689693258,0.5059470296211531,2.035540371364637,-0.027607614039007407,5.319022511535051,20.9632215611666,17.08512514033108,1.4133184766605225,2.0,2.0,1.0,3.9971207892165648
2.2,3.469981504832886,3.6002113256829427,-2.5305727316405946,-2.509402938051606,-0.7455972441922931,-5.036669112351211,0.6053235848369339,-0.8467311735475285,0.15209763556831224,-0.8137706462774585,1.3883100273782678,0.1063772777378261,9.831937560216915,0.5808765567458637,1.9104569879219682,-0.021399529707218715,6.203088383342169,20.8882116025037,16.4306301616199,1.7241074127511475,2.0,2.0,1.0,4.145656247785005
2.25,3.320598916067125,3.5509873804944165,-2.790905357414687,-2.9876517753152143,-0.9844789037705226,-5.206652515481851,0.537198355651127,-0.768357475915403,0.10703340719453366,-0.7369363414752481,1.6733664261403196,0.11503890072272684,10.254639101223498,0.5168843237150104,1.7444987303255164,-0.016708556100746955,6.699768042752191,20.110634767205788,16.14295578590993,2.7153805053555833,2.0,2.0,1.0,4.303545838078872
2.3,3.1485615526080144,3.4900485615348686,-3.0573364811558976,-3.440747269182216,-1.2187763791909578,-5.3286224748242095,0.4820767156928245,-0.6747693239896164,0.07508846914302729,-0.6607860372395369,1.9368885888975897,0.12224996643948172,10.628336135865958,0.3534961024487405,1.5494633651630532,-0.013427205675809102,6.9140917480227,18.826327107977512,16.113839922748184,4.188177357117561,2.0,2.0,1.0,4.472294453318116
2.3499999999999996,2.9556743504239185,3.4175243841451763,-3.327366902729121,-3.857744043681919,-1.450483547793846,-5.400608431464464,0.43699450477978713,-0.5681055922713515,0.05358110244740908,-0.6023343905142482,2.17383481456248,0.12836928968295563,10.948781157774487,0.13648082951165674,1.332284628822575,-0.011269894510403418,6.994292381106152,17.23700073248614,16.19278314503629,5.9388048991458975,2.0,2.0,1.0,4.652826361958908
2.3999999999999995,2.7443187255461905,3.333505665562482,-3.5985075858400597,-4.227112497554559,-1.6803743716538833,-5.422813662218777,0.3984090652389129,-0.4504216692100602,0.03972262707636048,-0.5723235366140373,2.380493693608595,0.13385590079054416,11.214222257559875,-0.09462985790585947,1.095225672238252,-0.009943174479793586,7.083198934378718,15.50304021050999,16.235933781641116,7.806149331030049,2.0,2.0,1.0,4.845463831493794
2.4499999999999993,2.517454408125303,3.238128651696469,-3.8684003513803003,-4.537286348417746,-1.9075402773202654,-5.397855310804811,0.36300148385857384,-0.3237141549660991,0.03144375782626974,-0.575301124695792,2.553801566664726,0.13907602584658973,11.42577636762292,-0.3106321124872363,0.8377433201404915,-0.009230349535800387,7.295448092259957,13.735012303188146,16.129105266319403,9.680310705855415,2.0,2.0,1.0,5.04995481207108
2.499999999999999,2.278586500183629,3.1316689659925583,-4.134946219451898,-4.777358158833485,-2.1291937140782125,-5.3309173614319505,0.3278988720638751,-0.19000598814333083,0.027656727954105894,-0.6108489067608918,2.6908181816365797,0.144186035840149,11.587709151398666,-0.49146924374338663,0.5586680095523173,-0.009016024757871789,7.713716858286427,12.00665507323301,15.79169572979184,11.489741490087386,2.0,2.0,1.0,5.265544393824684
2.549999999999999,2.031692510431044,3.0146314592877985,-4.396433007076338,-4.937879795051696,-2.3407501340951953,-5.2297357524888,0.29059483447282014,-0.05143535220422766,0.028250202059299193,-0.6749925058580881,2.788497044824455,0.14908082031869332,11.707521896248977,-0.623188590162161,0.25808894041926,-0.009283417394904903,8.393197364636274,10.373855197625437,15.172255292185666,13.182314041801598,2.0,2.0,1.0,5.491081005890996
2.5999999999999988,1.7811086139082326,2.887823499192575,-4.651650499923334,-5.011677930456231,-2.536159201904473,-5.104349856939923,0.24875517190053753,0.08966532618580687,0.0340104976759347,-0.761298466227019,2.843747658901268,0.1533907709177165,11.795760363144982,-0.6950248565910421,-0.06122023832904893,-0.010105411007015319,9.367281373299566,8.891303757572604,14.242701513776435,14.708573718496378,2.0,2.0,1.0,5.725146057342764
2.6499999999999986,1.5313803104070487,2.7524019563035456,-4.899980079987424,-4.994566070023678,-2.708430857780586,-4.966591601281802,0.20000766717790994,0.23070009276315717,0.04655356816001314,-0.8615474358063211,2.8537323428995958,0.15652034365193884,11.865501933589353,-0.6973704780805301,-0.39286266122493224,-0.011638521534424313,10.651626202797875,7.6237864710696455,12.99399402476401,16.010195234957816,2.0,2.0,1.0,5.96619460473525
2.6999999999999984,1.28708876798792,2.609887659414986,-5.14144668295485,-4.885830848382575,-2.8502859377711953,-4.829332059348523,0.14177642348267416,0.36875126931723257,0.06827157445108438,-0.9660629659870972,2.816326899388115,0.15772999631030993,11.931533976154801,-0.6208072733690327,-0.7263974324874534,-0.01412027766677888,12.246054560064705,6.651321863635521,11.433822566846084,17.014434985608492,2.0,2.0,1.0,6.212694483186245
2.7499999999999982,1.0526691359016789,2.4621450529098645,-5.3767244135628385,-4.688392641724821,-2.9548521301024255,-4.705554612159766,0.07123692040554058,0.5005454838448437,0.10222540668784605,-1.0638366022245325,2.7306704742538375,0.15626455509568093,12.009295718441935,-0.45634536083670013,-1.0475217011582572,-0.017862454318208418,14.134069698272945,6.067279231434941,9.586559388107123,17.63548740062692,2.0,2.0,1.0,6.463252127414702
2.799999999999998,0.832239875849626,2.311328741909709,-5.60709254126677,-4.408585201041058,-3.016326220003114,-4.607362554078627,-0.014462884168361218,0.6224838499348,0.15182260328580985,-1.1426087204110977,2.59772236441574,0.15152402912960605,12.113704816518103,-0.1973937611563251,-1.3390522925606583,-0.023222016247989846,16.27875105974665,5.966737801156054,7.496762356636394,17.785553598979003,2.0,2.0,1.0,6.716715055885411
2.849999999999998,0.629462021592553,2.1598019812879445,-5.834344913318743,-4.055557085141459,-3.030535212435286,-4.545047441039465,-0.1174729847000518,0.7308253013555052,0.22001508087717087,-1.1891116397189938,2.420724571497184,0.14325868115224094,12.25801605873124,0.1555014058665647,-1.5831112754552612,-0.0305192832329529,18.61263068672884,6.419592003148815,5.238686984253255,17.401206384600325,2.0,2.0,1.0,6.972243643023851
2.8999999999999977,0.44744420119540956,2.0100344558975407,-6.0606617772840945,-3.6403564079428694,-2.9953505078080767,-4.526337279307029,-0.23777805690954062,0.822166878566221,0.3077658540888776,-1.1897968229513134,2.205427176931579,0.13174950906948743,12.45285617279764,0.5864029914788047,-1.7651155640597196,-0.03987363388767862,21.02100958835796,7.4232607401855075,2.9324053149846976,16.49028052926947,2.0,2.0,1.0,7.229348167843869
2.9499999999999975,0.28870377372117195,1.864487777551641,-6.288457426952679,-3.1748085494847524,-2.9109335669179925,-4.555912993371685,-0.3712547587618143,0.894327181741217,0.4120152544095501,-1.1324994852606851,1.9598629706490538,0.11790932578212308,12.705547050841625,1.054580530923304,-1.8797608896311555,-0.05097990122954767,23.32858527861187,8.843396176988207,0.7567281974237177,15.190937397817832,2.0,2.0,1.0,7.487890891366588
2.9999999999999973,0.1551872496312166,1.7254973899738677,-6.520219235220264,-2.670330481799107,-2.7798077515554676,-4.635236165351699,-0.5085987473591884,0.9474279368487256,0.5244834521240089,-1.0093659605631813,1.693404114962966,0.10321984424568408,13.019779241408811,1.4927329089732835,-1.9371596832631721,-0.06297168994646744,25.316107318363645,10.383393140596784,-1.0676818526860088,13.802060635134389,2.0,2.0,1.0,7.748056731375374
3.049999999999997,0.048344760301784515,1.5951597291409991,-6.758353275301133,-2.136849786588642,-2.6067532166573715,-4.762680801617378,-0.6369249783019111,0.9844419550500647,0.6331273838847338,-0.820531910618918,1.414959770357866,0.08944820223751086,13.395639571555543,1.8229153168681707,-1.964272632097054,-0.0745728942765852,26.787185612478126,11.64010968767019,-2.345029379562063,12.72747365096929,2.0,2.0,1.0,8.010299580160938
3.099999999999997,-0.030755799295298897,1.4752337624218286,-7.005048891760084,-1.5820111919416682,-2.398519334383411,-4.933912329179027,-0.7436895006356542,1.0104454932646327,0.7259469316582526,-0.5766719904407586,1.1306627016724766,0.07821423246408561,13.829937565877378,1.98480886418507,-1.9974016865308888,-0.08450617079381843,27.64833035999841,12.241448916671589,-2.984058491662811,12.338316780870194,2.0,2.0,1.0,8.275273800904884
3.149999999999997,-0.08129760824560198,1.3670654976265204,-7.262169437636464,-1.0108361790060616,-2.1633652959061633,-5.142410917527602,-0.8197801806604539,1.0307721961424523,0.7940385609663675,-0.2982951051225234,0.842036172446279,0.0706406980426807,14.316718226367568,1.9535346504834477,-2.068443715342415,-0.09182054337397545,27.924807253304085,11.96779147898314,-3.0134878684333155,12.851707362513656,2.0,2.0,1.0,8.543760860101228
3.1999999999999966,-0.1025935878739498,1.2715414377571528,-7.5311697167839835,-0.4259195925669565,-1.9104811973873526,-5.380005582950389,-0.8596659991311696,1.0491369662214727,0.8317941932814986,-0.011793349368059133,0.545712631787991,0.06728555058916598,14.847808163505688,1.7341844130539474,-2.193099035410407,-0.0959108931755229,27.694391104417818,10.776443077750002,-2.515481576077215,14.306555557415079,2.0,2.0,1.0,8.816598460247903
3.2499999999999964,-0.09399917132812757,1.189072720768815,-7.813034457317526,0.17188833091644456,-1.649374339766756,-5.637294810670852,-0.8598493431419318,1.0664834393309173,0.8354431884703244,0.2552481565978989,0.23497801165018967,0.06828541350973828,15.41324774009764,1.3448784774078444,-2.366077838708446,-0.09636057199109589,27.00383598616176,8.755056940870475,-1.541981830117394,16.610436643182794,2.0,2.0,1.0,9.094614446340769
3.2999999999999963,-0.05487501877821335,1.1196083770543694,-8.108229014135743,0.7824830509982844,-1.3892868742889108,-5.9038911363643365,-0.8181769824104894,1.080542053779475,0.8024303558040152,0.47705214074707397,-0.09751925433918894,0.07345012231632075,16.001530305170398,0.8079918791337106,-2.5622115263958185,-0.09287562946825104,25.839447274157852,6.083690025609738,-0.08519430683852794,19.577687312241334,2.0,2.0,1.0,9.378562604498399
3.349999999999996,0.015394523403740838,1.0626758299651218,-8.416654911990635,1.4053908436390838,-1.1386509417849533,-6.168517957097848,-0.7358364545904867,1.085947359877386,0.7334216599487513,0.6308419543308168,-0.4568193434679495,0.0821454848490706,16.599675141857805,0.16082717897102397,-2.7411339256304177,-0.08550461016824124,24.18620880185821,3.0578109150016464,1.8634310741548137,22.906324350843136,2.0,2.0,1.0,9.669055032886346
3.399999999999996,0.1173293268057047,1.0174486796731406,-8.737608126637987,2.038696068039277,-0.9045430058396242,-6.419064292947034,-0.621772049800372,1.0752514757922302,0.6366803293153777,0.6982892234260338,-0.8431376859612325,0.09305222589562762,17.19325404043544,-0.5194119501430702,-2.8565672009331267,-0.07511871841201051,22.159676846596696,0.14852363405894753,4.18155953282703,26.117594026952766,2.0,2.0,1.0,9.96648724419733
3.4499999999999957,0.25123490948800015,0.9828424595105968,-9.069745190848378,2.6781116536459093,-0.6921244032508755,-6.642741284207823,-0.4947066580392544,1.0412886580347587,0.5300485222872401,0.6696317741866832,-1.2503802394081023,0.10411152285755748,17.7665409577079,-1.1097188465630161,-2.872061369725467,-0.06363150018524022,20.074435848748045,-2.0501596684635524,6.517954901344578,28.578918918370935,2.0,2.0,1.0,10.270956966737906
3.4999999999999956,0.4170285316686079,0.9576286950154851,-9.411079377461297,3.3158724436121556,-0.504275289902234,-6.826683732258374,-0.37646580123293744,0.9799362942792708,0.4343025504947322,0.5499129725921993,-1.6664959518113667,0.11297900284788262,18.30319751914368,-1.491974131169487,-2.7756615289134228,-0.053273361876349505,18.230865062561147,-3.147014148480279,8.356346618377026,29.680952467542102,2.0,2.0,1.0,10.582197806259638
3.5499999999999954,0.6139168128791379,0.9405276278482819,-9.759100025607102,3.9377656242105994,-0.3420213433440633,-6.960412962916109,-0.28101432010634403,0.89101333449481,0.3623338615697926,0.3616149490790382,-2.076032237713263,0.11788301794855731,18.78919815304475,-1.6242315044104338,-2.5773021514655228,-0.04541523075611452,16.957297642516295,-2.8908111379811694,9.625984972861765,29.42867852260311,2.0,2.0,1.0,10.899630345566342
3.599999999999995,0.8402936456572717,0.9303430933999466,-10.110850976430427,4.527536655562676,-0.20369068896670672,-7.035019016466499,-0.21088190909994503,0.7769496694657472,0.3157851502148053,0.13831178839249686,-2.4634884662544185,0.11825723112236716,19.211950130168518,-1.5502904554984929,-2.2990229029507345,-0.0402178163580418,16.17008213659813,-1.5348183327403853,10.41060177158089,28.075284424561364,2.0,2.0,1.0,11.22230342427904
3.649999999999995,1.0937364219656047,0.9260634998265106,-10.463021015088268,5.06885552616666,-0.08559187146871983,-7.043400773156812,-0.16160107573008,0.6411257675371984,0.28966365108491005,-0.08713730072557256,-2.815761186129975,0.11472203134058687,19.560640286364084,-1.3527728793882403,-1.9625826414263516,-0.0371474690020349,15.634996528935552,0.5196332450010605,10.944152205565466,26.02236802049792,2.0,2.0,1.0,11.548831285962743
3.699999999999995,1.3708929922051942,0.9268630875612436,-10.812167554868058,5.54313140479179,0.015991754694659743,-6.982930795595799,-0.12693276766484074,0.4870540471986315,0.27764195019406684,-0.2913178140915408,-3.12296173162187,0.1086102343992296,19.829477881767097,-1.1082609535853196,-1.5806812032291921,-0.03555032315972462,15.106176040958673,2.929314700692715,11.47217412062119,23.613485137727423,2.0,2.0,1.0,11.877487141831505
3.7499999999999947,1.6674258639826272,0.9320605164465554,-11.155004580902766,5.9306574355486585,0.10394857770623656,-6.85674052069416,-0.10149768949219803,0.3182178214885001,0.27466820048434537,-0.4623525200369752,-3.3776874753452346,0.10144173440343751,20.019403709362493,-0.8686400385152099,-1.1582418693067338,-0.034923037786633006,14.402871454798673,5.4758570950843275,12.175165064094644,21.067256386022358,2.0,2.0,1.0,12.206360500093684
3.7999999999999945,1.9780414603073462,0.9410570896282262,-11.488730767904029,6.2123119264943805,0.17993146363341594,-6.674523740025258,-0.08139236572241319,0.1381320653690961,0.2775079639414662,-0.5975539480428093,-3.573796864109881,0.09458983208101343,20.139279015033786,-0.6619618196196132,-0.6966344496510745,-0.03495977741552489,13.422383713705655,8.046177289220397,13.155671175002107,18.49691782207184,2.0,2.0,1.0,12.533564475363137
3.8499999999999943,2.296625140495837,0.9532763484158977,-11.811358296144466,6.371673603769814,0.24438517575342988,-6.452550564808739,-0.06397450323202501,-0.04958417714993179,0.2844426398871895,-0.6999086984148756,-3.7055983135481867,0.08914796396362104,20.20616867760786,-0.49994006123739293,-0.1978951492356464,-0.03551296972630749,12.127454542424859,10.587427678825966,14.450876942438294,15.955390836310881,2.0,2.0,1.0,12.857469357107151
3.899999999999994,2.6164858640112443,0.9681208729576603,-12.121993444162442,6.397214470308148,0.296890490835251,-6.212702960359522,-0.04747986216426285,-0.241175128164147,0.2948011479313458,-0.77521138467821,-3.767652967024177,0.08591404463173713,20.244462018126455,-0.3849950657593218,0.3320360848407337,-0.03654021812021152,10.53161043683753,13.067464057321532,16.047234672222572,13.474840833618364,2.0,2.0,1.0,13.17693216579616
3.949999999999994,2.9306915910706826,0.9849550435901215,-12.421020046301713,6.284114541188766,0.33668341264922574,-5.980532042785427,-0.030713618267690975,-0.43276288634308935,0.30855051763788294,-0.8302535422080808,-3.755113567919807,0.0854232945803862,20.28379184485917,-0.31479033853054467,0.8814611317172621,-0.03805980133337763,8.68883525707255,15.450275600384801,17.890769643594137,11.091269498948511,2.0,2.0,1.0,13.491489250058915
3.999999999999994,3.2324539125717298,1.0031160516309054,-12.710148398656903,6.035246430020944,0.3632201608156782,-5.782567047103804,-0.012886217970106278,-0.6204137478925278,0.32595521363174396,-0.8718389882671246,-3.664425313222729,0.08799590968914174,20.355985523702742,-0.28435402544834115,1.4327138326147533,-0.040114479667911616,6.686208973520462,17.68702736918461,19.894423266313492,8.853490390981436,2.0,2.0,1.0,13.801481419265244
4.049999999999994,3.5155049514399686,1.021950140677476,-12.992314374029585,5.661020777364776,0.3766817809314116,-5.643319507453626,0.006354161264482372,-0.8002595067643556,0.3472113559904943,-0.906266512076481,-3.494170120157416,0.09378995968878708,20.49154520527333,-0.2862014319912875,1.9689069754712751,-0.0427327045131229,4.617476801272271,19.74154872187167,21.964464550984292,6.797659925871767,2.0,2.0,1.0,14.108089818498987
4.099999999999993,3.774407166742427,1.0408672890310715,-13.271441764544686,5.17804430604917,0.3783429670719096,-5.582547810302039,0.026524901495160298,-0.9686487638575763,0.37183218901262344,-0.9389600610191857,-3.2453955589722887,0.10286985464437494,20.71631687478381,-0.3080842468146892,2.472037153652399,-0.04586261038853412,2.5989785354160255,21.59171764293252,23.984527769778243,4.945926051873212,2.0,2.0,1.0,14.413275352584778
4.149999999999993,4.004749895190812,1.0594058697598803,-13.55210703051923,4.606854568967691,0.37077161457617525,-5.6133053194908555,0.04502058477308329,-1.122305596904638,0.39720967616946873,-0.973923910723481,-2.921666994194484,0.11528684563956162,21.04898075828318,-0.32577662780152344,2.917489860446588,-0.04921423915716114,0.8184891819119381,23.23611175807634,25.766692937666644,3.2998561223450777,2.0,2.0,1.0,14.719631737506102
4.199999999999993,4.203211822967242,1.0772992235553567,-13.839161150739795,3.969238555528616,0.35786707590952815,-5.7410824044113085,0.053189256922139445,-1.2584614349678573,0.41457428673497565,-1.0124730470384264,-2.5296845400360244,0.13111570792916266,21.49976350787185,-0.2812804408060971,3.260936331817123,-0.051808600978066686,-0.33067101369094676,24.727550315182505,26.917150314179977,1.807120384328461,2.0,2.0,1.0,15.030177068728744
4.249999999999993,4.3674976191808215,1.0945370575653321,-14.137364156121057,3.2857159242715817,0.34475668019950945,-5.964060107625251,0.022810139298857928,-1.3747324648505335,0.39537467540244786,-1.0497381194840831,-2.081287771635286,0.1503812493835519,22.0704370916535,-0.006796862410246925,3.4933837101151286,-0.050449380465084626,-0.16933312613517273,26.677624569133275,26.755132816367716,-0.14227425936581525,2.0,2.0,1.0,15.348117204138358
4.299999999999993,4.496181061902162,1.111412668119608,-14.451076271667947,2.5736688544268027,0.33751221108551555,-6.274242310937801,-0.15462369324566985,-1.4670514939875439,0.23049960721713164,-1.063651024194966,-1.5918301649577618,0.17294460684416524,22.755371699258784,1.1244197014109893,3.6,-0.032912012220957056,3.7670528161744294,31.442904502371643,22.80997818993605,-4.898785508482123,2.0,2.0,1.0,15.67661523713195
4.3499999999999925,4.588500780748129,1.1285364684289427,-14.7840243522646,1.8463943769193492,0.34247600618669605,-6.658961611933059,-0.8702169376879048,-1.517621002368632,-0.4720624835245577,-0.9709665115589751,-1.077902134029553,0.19825019822477322,23.543077481641976,3.6,3.5042899494569286,0.04472588159090197,13.63722160861409,40.6156610836936,12.900990450590461,-14.032723142898154,2.0,2.0,1.0,16.018589505061733
4.399999999999992,4.644149670531181,1.1467480798594967,-15.139116998775792,1.1129777956610454,0.36423222861107885,-7.101852930223842,-1.630376623111783,-1.512928417012757,-1.2196827921783595,-0.6082749126047206,-0.5620981360450926,0.22103679750933808,24.417172199879168,3.6,3.151134982934423,0.12751304314509326,14.974813151004408,39.27806954130328,11.522005327423045,-12.653738019730739,2.0,2.0,1.0,16.376527831612147
4.449999999999992,4.6630683519606935,1.166803712267258,-15.518244294304969,0.3783736285902428,0.4011126481552285,-7.5825459105835336,-1.7152425964349252,-1.5100428421846237,-1.2929064643386494,-0.0854970398045411,-0.07830254603365594,0.22969948488721023,25.355862185187807,3.6,2.974500409614832,0.1353574195662341,15.65221580043601,38.60066689187169,10.840680489780873,-11.972413182088566,2.0,2.0,1.0,16.75226980643056
4.499999999999992,4.645264738194626,1.1890340070225984,-15.922137327807443,-0.3560722753213419,0.4446058951068066,-8.077860670049475,-1.2279614871320437,-1.5200268083854427,-0.7948540092538817,0.4358822756926261,0.3698934367956328,0.22583564996668748,26.33319927201449,3.6,3.0194825349279397,0.07974142881411511,15.493111623842857,38.759771068464836,11.027592661750084,-12.159325354057778,2.0,2.0,1.0,17.1468312850531
4.549999999999992,4.590729747061845,1.2132291129081634,-16.350361759255495,-1.0906998226556297,0.483902117711299,-8.564488628961051,-0.28181056143138594,-1.4938078418189535,0.1612087580441083,0.9561124411559623,0.8113303874618233,0.21054771263409022,27.322152778717644,-1.2288366663931956,2.9387818906738072,-0.02669606641106918,-2.742340625962628,19.850325884476508,29.31626365916816,6.696901082317959,2.0,2.0,1.0,17.560351426669165
4.599999999999992,4.499486933617458,1.238647320954705,-16.801338941533956,-1.8248562688877357,0.5083641609308343,-9.019543645569215,0.00703605861621962,-1.4171808477885097,0.4597887153648376,1.0885104607079292,1.2473177268185949,0.1943795635601817,28.29525448834743,-3.1296955361632306,2.6432539767289898,-0.059468954827959435,-8.908497233955396,11.39449118654593,35.498806711369376,15.136349336040093,2.0,2.0,1.0,17.992074948281733
4.6499999999999915,4.371741896739348,1.2643923106980735,-17.272524437089462,-2.554900737562207,0.5148997948673673,-9.423709911110123,-0.005578452162018294,-1.3264998130261563,0.4581755936537605,0.7515929708150535,1.651657285108733,0.1842498670790613,29.228356712349328,-2.406033718022436,2.3947818256948654,-0.058872482019742475,-5.169669547638531,13.22229287054287,31.7596807886484,13.308845888447259,2.0,2.0,1.0,18.44048338849447
4.699999999999991,4.208002669002652,1.2901407722947502,-17.76080923137958,-3.274784554733916,0.5149692319335353,-9.76569588580233,-0.09175565593511878,-1.2272481502847477,0.38545725675902415,0.34759546569449684,2.015494963391326,0.17985011994782876,30.106072464834355,-1.1262770053088282,2.234891676705841,-0.05054847936189813,0.36535276593790245,17.53155296245573,26.220496473743044,9.003747797863321,2.0,2.0,1.0,18.903627665760304
4.749999999999991,4.009146482353947,1.3165317114765824,-18.262829446567327,-3.9771237329740927,0.5278187836366444,-10.040404303754968,-0.1822775090199551,-1.1149502412024608,0.31111518105041136,0.09304033825637263,2.349992842531784,0.17822451055528843,30.919917464862923,-0.06486254088067654,2.1079049275595567,-0.042156520758674196,4.93402867465031,21.127603703190637,21.647624585729027,5.411893036430023,2.0,2.0,1.0,19.3793807118936
4.799999999999991,3.776531740537911,1.3450457912712626,-18.77506328043482,-4.6522948363207295,0.5702815958936025,-10.244676677349887,-0.2554831555691481,-0.9867400590979719,0.25630794499294096,0.006862602454147577,2.66396282734393,0.1767722070342995,31.663493077993248,0.6338345358465519,1.968704647676466,-0.03595929319267222,8.15516150856773,23.281063767174977,18.423393138028608,3.2615315862286867,2.0,2.0,1.0,19.865501699828066
4.849999999999991,3.5121684625364833,1.377699659173622,-19.293860639773552,-5.287265560028551,0.6530773580471871,-10.37594718677461,-0.3083577104101409,-0.8423086810627638,0.22317347312900282,0.045617570767007634,2.9587150955509776,0.17401287379805672,32.330961354501525,1.0417437408769015,1.795873281831728,-0.0321354448246159,10.387823126764513,24.186165264596266,16.188819595647796,2.3583420129914265,2.0,2.0,1.0,20.359633858196784
4.899999999999991,3.2188913330977,1.4167490903646545,-19.8155152507802,-5.86554258877567,0.7809886238206509,-10.433092220132991,-0.3441856368011885,-0.6826375936461343,0.2074665525727418,0.16217316405372756,3.2308230264468634,0.1692787806535316,32.91807940792289,1.2701072901157202,1.5787835880836165,-0.03018216329979598,12.100616510179194,24.230014567634036,14.475049571470706,2.315469350716065,2.0,2.0,1.0,20.85932771833633
4.94999999999999,2.900491508250089,1.4644424798136089,-20.33641282141276,-6.36799649695222,0.9538677889790881,-10.417951412651192,-0.3671374699828338,-0.5091960687733733,0.20406479056459811,0.3230443388086889,3.474615081896352,0.16245407897118674,33.42406759993193,1.407068892061499,1.308930267922253,-0.029521059811408488,13.665124011642261,23.719057850369268,12.910211518263443,2.8267566197250256,2.0,2.0,1.0,21.36212112360581
4.99999999999999,2.5617795656029596,1.5228141688033936,-20.853250761342206,-6.7742388529425845,1.1674337797956946,-10.336758798588903,-0.38043438706446453,-0.3237071318757258,0.20870444184423084,0.5090973363338445,3.683082344696405,0.15382387017521015,33.85343269951057,1.5056384102692386,0.978149273531272,-0.029686360640476417,15.316513462229222,22.825895462918766,11.258904718091015,3.719836356760994,2.0,2.0,1.0,21.865677932228113
